[
  {
    "Results": [
      {
        "county": "Stockton-on-Tees",
        "title": "A19 northbound between A1130 and A66 | Northbound | Congestion",
        "region": "North East",
        "road": "A19",
        "latitude": "54.555473",
        "longitude": "-1.2705986"
      },
      {
        "county": "Hertfordshire",
        "title": "M25 anti-clockwise between J25 and J24 | Anti-Clockwise | Broken down vehicle",
        "region": "Eastern",
        "road": "M25",
        "latitude": "51.69136",
        "longitude": "-0.1042463"
      },
      {
        "county": "Kent",
        "title": "M2 J7 eastbound exit | Eastbound | Congestion",
        "region": "South East",
        "road": "M2",
        "latitude": "51.300053",
        "longitude": "0.9231624"
      },
      {
        "county": "Cheshire West and Chester",
        "title": "M6 southbound between J19 and J18 | Southbound | Broken down vehicle",
        "region": "North West",
        "road": "M6",
        "latitude": "53.291256",
        "longitude": "-2.3961596"
      },
      {
        "county": "Surrey",
        "title": "A23 northbound between B2031 and A237 | Northbound | Congestion",
        "region": "South East",
        "road": "A23",
        "latitude": "51.28348",
        "longitude": "-0.15608588"
      },
      {
        "county": "Devon",
        "title": "M5 J30 northbound exit | Northbound | Broken down vehicle",
        "region": "South West",
        "road": "M5",
        "latitude": "50.710564",
        "longitude": "-3.4653978"
      },
      {
        "county": "Surrey",
        "title": "A30 eastbound between M25 and A308 | Eastbound | Congestion",
        "region": "South East",
        "road": "A30",
        "latitude": "51.437218",
        "longitude": "-0.50056523"
      },
      {
        "county": "Leeds District",
        "title": "M621 eastbound between J2A and J3 | Eastbound | Overturned Vehicle",
        "region": "North East",
        "road": "M621",
        "latitude": "53.78365",
        "longitude": "-1.5547003"
      },
      {
        "county": "Leeds District",
        "title": "M621 eastbound between J2 and J2A | Eastbound | Congestion",
        "region": "North East",
        "road": "M621",
        "latitude": "53.779747",
        "longitude": "-1.5724312"
      },
      {
        "county": "Leeds District",
        "title": "M621 J2A eastbound access | Eastbound | Overturned Vehicle",
        "region": "North East",
        "road": "M621",
        "latitude": "53.783085",
        "longitude": "-1.5577202"
      },
      {
        "county": "Bedford",
        "title": "A421 northbound between A4280 and A1 | Northbound | Congestion",
        "region": "Eastern",
        "road": "A421",
        "latitude": "52.168976",
        "longitude": "-0.34355742"
      },
      {
        "county": "Kent",
        "title": "A20 eastbound between B2011 and A256 near Dover (west) | Eastbound | Congestion",
        "region": "South East",
        "road": "A20",
        "latitude": "51.109055",
        "longitude": "1.2747864"
      },
      {
        "county": "Windsor and Maidenhead",
        "title": "M4 J8 eastbound exit | Eastbound | Congestion",
        "region": "Eastern",
        "road": "M4",
        "latitude": "51.498554",
        "longitude": "-0.72709686"
      },
      {
        "county": "Somerset",
        "title": "A303 westbound between A371 and A359 near Yeovil (west) | Westbound | Accident",
        "region": "South West",
        "road": "A303",
        "latitude": "51.044704",
        "longitude": "-2.4454722"
      },
      {
        "county": "Kent",
        "title": "M20 eastbound between J7 and J8 | Eastbound | Congestion",
        "region": "South East",
        "road": "M20",
        "latitude": "51.27982",
        "longitude": "0.58708537"
      },
      {
        "county": "Kent",
        "title": "M20 J11 eastbound access | Eastbound | RoadOrCarriagewayOrLaneManagement",
        "region": "South East",
        "road": "M20",
        "latitude": "51.095604",
        "longitude": "1.0521513"
      },
      {
        "county": "West Sussex",
        "title": "A27 eastbound between A284 near Arundel (west) and A284 near Arundel (east) | Eastbound | Congestion",
        "region": "South East",
        "road": "A27",
        "latitude": "50.850124",
        "longitude": "-0.55583674"
      },
      {
        "county": "Buckinghamshire",
        "title": "M40 J4 northbound exit | Northbound | Congestion",
        "region": "Eastern",
        "road": "M40",
        "latitude": "51.612164",
        "longitude": "-0.7668885"
      }
    ],
    "Timestamp": "2022-04-03T14:00:38"
  },
  {
    "Results": [
      {
        "county": "Kent",
        "title": "A20 eastbound access from M20/A259/A2034 | Eastbound | RoadOrCarriagewayOrLaneManagement",
        "region": "South East",
        "road": "A20",
        "latitude": "51.09581",
        "longitude": "1.1568221"
      },
      {
        "county": "Kent",
        "title": "A20 eastbound between M20/A259/A2034 and A260 | Eastbound | RoadOrCarriagewayOrLaneManagement",
        "region": "South East",
        "road": "A20",
        "latitude": "51.09589",
        "longitude": "1.1598532"
      },
      {
        "county": "Kent",
        "title": "M20 eastbound between J8 and J9 | Eastbound | RoadOrCarriagewayOrLaneManagement",
        "region": "South East",
        "road": "M20",
        "latitude": "51.260796",
        "longitude": "0.61932355"
      },
      {
        "county": "Sheffield District",
        "title": "M1 southbound between J34 and J33 | Southbound | Broken down vehicle",
        "region": "North East",
        "road": "M1",
        "latitude": "53.39752",
        "longitude": "-1.3699949"
      },
      {
        "county": "Kent",
        "title": "M20 J11 eastbound access | Eastbound | RoadOrCarriagewayOrLaneManagement",
        "region": "South East",
        "road": "M20",
        "latitude": "51.095604",
        "longitude": "1.0521513"
      },
      {
        "county": "Swindon",
        "title": "M4 westbound between J15 and J16 | Westbound | Accident",
        "region": "South West",
        "road": "M4",
        "latitude": "51.527737",
        "longitude": "-1.7326902"
      },
      {
        "county": "Swindon",
        "title": "M4 J15 westbound access | Westbound | Accident",
        "region": "South West",
        "road": "M4",
        "latitude": "51.526787",
        "longitude": "-1.7276497"
      },
      {
        "county": "Swindon",
        "title": "M4 eastbound between J16 and J15 | Eastbound | Accident",
        "region": "South West",
        "road": "M4",
        "latitude": "51.540493",
        "longitude": "-1.8046329"
      }
    ],
    "Timestamp": "2022-04-02T06:00:38"
  },
  {
    "Results": [
      {
        "county": "Surrey",
        "title": "M25 anti-clockwise between J6 and J5 | Anti-Clockwise | Accident",
        "region": "South East",
        "road": "M25",
        "latitude": "51.264763",
        "longitude": "-0.02758538"
      },
      {
        "county": "Cheshire East",
        "title": "A556 northbound between M6 J19 and A50 | Northbound | Congestion",
        "region": "North West",
        "road": "A556",
        "latitude": "53.3281",
        "longitude": "-2.4225404"
      },
      {
        "county": "Staffordshire",
        "title": "A5 northbound between M6 Toll and A4601 | Northbound | Accident",
        "region": "West Midlands",
        "road": "A5",
        "latitude": "52.674004",
        "longitude": "-2.028929"
      },
      {
        "county": "Kent",
        "title": "A20 eastbound between A256 near Dover (east) and A2 | Eastbound | Congestion",
        "region": "South East",
        "road": "A20",
        "latitude": "51.12296",
        "longitude": "1.3124447"
      },
      {
        "county": "Kent",
        "title": "M20 eastbound between J8 and J9 | Eastbound | RoadOrCarriagewayOrLaneManagement",
        "region": "South East",
        "road": "M20",
        "latitude": "51.260796",
        "longitude": "0.61932355"
      },
      {
        "county": "Kent",
        "title": "M20 J11 eastbound access | Eastbound | RoadOrCarriagewayOrLaneManagement",
        "region": "South East",
        "road": "M20",
        "latitude": "51.095604",
        "longitude": "1.0521513"
      }
    ],
    "Timestamp": "2022-04-03T02:00:38"
  },
  {
    "Results": [
      {
        "county": "Hertfordshire",
        "title": "M25 clockwise within J20 | Clockwise | Congestion",
        "region": "Eastern",
        "road": "M25",
        "latitude": "51.699352",
        "longitude": "-0.44459647"
      },
      {
        "county": "Lancashire",
        "title": "M65 J7 westbound exit | Westbound | Accident",
        "region": "North West",
        "road": "M65",
        "latitude": "53.766335",
        "longitude": "-2.3889391"
      },
      {
        "county": "Sefton District",
        "title": "A5036 southbound between A5090 and A567 | Southbound | Congestion",
        "region": "North West",
        "road": "A5036",
        "latitude": "53.468895",
        "longitude": "-3.000587"
      },
      {
        "county": "Kirklees District",
        "title": "M62 eastbound between J26 and J27 | Eastbound | Accident",
        "region": "North East",
        "road": "M62",
        "latitude": "53.74584",
        "longitude": "-1.7098718"
      },
      {
        "county": "West Sussex",
        "title": "A23 southbound within the A273 junction | Southbound | AuthorityOperation",
        "region": "South East",
        "road": "A23",
        "latitude": "50.96441",
        "longitude": "-0.1935964"
      },
      {
        "county": "Milton Keynes",
        "title": "M1 J14 northbound access | Northbound | RoadOrCarriagewayOrLaneManagement",
        "region": "Eastern",
        "road": "M1",
        "latitude": "52.058887",
        "longitude": "-0.7013574"
      },
      {
        "county": "Leicestershire",
        "title": "A453 northbound between A6 and M1 J24/A50 | Northbound | Congestion",
        "region": "East Midlands",
        "road": "A453",
        "latitude": "52.84333",
        "longitude": "-1.2974861"
      },
      {
        "county": "Northamptonshire",
        "title": "A5 northbound between A422/A508 and A43 | Northbound | Congestion",
        "region": "East Midlands",
        "road": "A5",
        "latitude": "52.124615",
        "longitude": "-0.9771369"
      },
      {
        "county": "Kent",
        "title": "M20 eastbound between J8 and J9 | Eastbound | RoadOrCarriagewayOrLaneManagement",
        "region": "South East",
        "road": "M20",
        "latitude": "51.260796",
        "longitude": "0.61932355"
      },
      {
        "county": "Greater London Authority",
        "title": "M25 clockwise between J25 and J26 | Clockwise | Accident",
        "region": "Eastern",
        "road": "M25",
        "latitude": "51.682507",
        "longitude": "-0.035925783"
      }
    ],
    "Timestamp": "2022-04-01T23:50:46"
  },
  {
    "Results": [
      {
        "county": "East Sussex",
        "title": "A2270 northbound within the A27 junction | Northbound | Congestion",
        "region": "South East",
        "road": "A2270",
        "latitude": "50.82038",
        "longitude": "0.23918775"
      },
      {
        "county": "Kent",
        "title": "M2 J7 eastbound exit | Eastbound | Congestion",
        "region": "South East",
        "road": "M2",
        "latitude": "51.300053",
        "longitude": "0.9231624"
      },
      {
        "county": "Leeds District",
        "title": "M62 eastbound between J27 and J28 | Eastbound | Spillage",
        "region": "North East",
        "road": "M62",
        "latitude": "53.740074",
        "longitude": "-1.6239136"
      },
      {
        "county": "Cumbria",
        "title": "A595 southbound between B5295 near Homewood and A5086 | Southbound | Accident",
        "region": "North West",
        "road": "A595",
        "latitude": "54.529743",
        "longitude": "-3.568734"
      },
      {
        "county": "Cumbria",
        "title": "A595 northbound between A5086 and B5295 near Homewood | Northbound | Accident",
        "region": "North West",
        "road": "A595",
        "latitude": "54.49033",
        "longitude": "-3.5345745"
      },
      {
        "county": "Kent",
        "title": "A282 northbound within the A206 junction | Anti-Clockwise | Congestion",
        "region": "South East",
        "road": "M25",
        "latitude": "51.4521",
        "longitude": "0.24076885"
      },
      {
        "county": "Kent",
        "title": "M20 eastbound between J8 and J9 | Eastbound | RoadOrCarriagewayOrLaneManagement",
        "region": "South East",
        "road": "M20",
        "latitude": "51.260796",
        "longitude": "0.61932355"
      },
      {
        "county": "Kent",
        "title": "M20 J11 eastbound access | Eastbound | RoadOrCarriagewayOrLaneManagement",
        "region": "South East",
        "road": "M20",
        "latitude": "51.095604",
        "longitude": "1.0521513"
      },
      {
        "county": "Kirklees District",
        "title": "M62 J26 westbound exit | Westbound | Accident",
        "region": "North East",
        "road": "M62",
        "latitude": "53.73937",
        "longitude": "-1.7227355"
      }
    ],
    "Timestamp": "2022-04-02T18:00:39"
  },
  {
    "Results": [
      {
        "county": "Hertfordshire",
        "title": "M25 anti-clockwise between J25 and J24 | Anti-Clockwise | Broken down vehicle",
        "region": "Eastern",
        "road": "M25",
        "latitude": "51.69136",
        "longitude": "-0.1042463"
      },
      {
        "county": "Kent",
        "title": "M2 J7 eastbound exit | Eastbound | Congestion",
        "region": "South East",
        "road": "M2",
        "latitude": "51.300053",
        "longitude": "0.9231624"
      },
      {
        "county": "Devon",
        "title": "M5 J30 northbound exit | Northbound | Broken down vehicle",
        "region": "South West",
        "road": "M5",
        "latitude": "50.710564",
        "longitude": "-3.4653978"
      },
      {
        "county": "Bedford",
        "title": "A421 northbound between A4280 and A1 | Northbound | Congestion",
        "region": "Eastern",
        "road": "A421",
        "latitude": "52.168976",
        "longitude": "-0.34355742"
      },
      {
        "county": "Kent",
        "title": "A20 westbound between A256 near Dover (west) and B2011 | Westbound | Congestion",
        "region": "South East",
        "road": "A20",
        "latitude": "51.12565",
        "longitude": "1.325445"
      },
      {
        "county": "Somerset",
        "title": "A303 westbound between A371 and A359 near Yeovil (west) | Westbound | Accident",
        "region": "South West",
        "road": "A303",
        "latitude": "51.044704",
        "longitude": "-2.4454722"
      },
      {
        "county": "Hampshire",
        "title": "M27 eastbound between J9 and J10 | Eastbound | Broken down vehicle",
        "region": "South East",
        "road": "M27",
        "latitude": "50.86775",
        "longitude": "-1.212769"
      },
      {
        "county": "County of Herefordshire",
        "title": "A49 northbound between B4224 and A4103 | Northbound | Congestion",
        "region": "West Midlands",
        "road": "A49",
        "latitude": "52.05801",
        "longitude": "-2.7199893"
      },
      {
        "county": "Kent",
        "title": "A20 eastbound between A256 near Dover (east) and A2 | Eastbound | Congestion",
        "region": "South East",
        "road": "A20",
        "latitude": "51.103886",
        "longitude": "1.2461857"
      },
      {
        "county": "Kent",
        "title": "M20 J11 eastbound access | Eastbound | RoadOrCarriagewayOrLaneManagement",
        "region": "South East",
        "road": "M20",
        "latitude": "51.095604",
        "longitude": "1.0521513"
      },
      {
        "county": "Buckinghamshire",
        "title": "M40 J4 northbound exit | Northbound | Congestion",
        "region": "Eastern",
        "road": "M40",
        "latitude": "51.612164",
        "longitude": "-0.7668885"
      },
      {
        "county": "Norfolk",
        "title": "A47 eastbound between B198 near Wisbech (west) and A1101 | Eastbound | Congestion",
        "region": "Eastern",
        "road": "A47",
        "latitude": "52.64566",
        "longitude": "0.1555738"
      },
      {
        "county": "Greater London Authority",
        "title": "M4 westbound within J2 | Westbound | Congestion",
        "region": "Eastern",
        "road": "M4",
        "latitude": "51.49133",
        "longitude": "-0.29584086"
      },
      {
        "county": "Derbyshire",
        "title": "M1 northbound between J29a and J30 | Northbound | Accident",
        "region": "East Midlands",
        "road": "M1",
        "latitude": "53.262417",
        "longitude": "-1.3105316"
      }
    ],
    "Timestamp": "2022-04-03T13:00:38"
  },
  {
    "Results": [
      {
        "county": "Hertfordshire",
        "title": "M25 anti-clockwise between J25 and J24 | Anti-Clockwise | Broken down vehicle",
        "region": "Eastern",
        "road": "M25",
        "latitude": "51.683723",
        "longitude": "-0.06724613"
      },
      {
        "county": "Oldham District",
        "title": "M60 J21 anti-clockwise exit | Anti-Clockwise | Vehicle Fire",
        "region": "North West",
        "road": "M60",
        "latitude": "53.522705",
        "longitude": "-2.153212"
      },
      {
        "county": "Kent",
        "title": "A20 eastbound between B2011 and A256 near Dover (west) | Eastbound | Congestion",
        "region": "South East",
        "road": "A20",
        "latitude": "51.103886",
        "longitude": "1.2461857"
      },
      {
        "county": "Kent",
        "title": "M20 eastbound between J8 and J9 | Eastbound | RoadOrCarriagewayOrLaneManagement",
        "region": "South East",
        "road": "M20",
        "latitude": "51.260796",
        "longitude": "0.61932355"
      },
      {
        "county": "Kent",
        "title": "M20 J11 eastbound access | Eastbound | RoadOrCarriagewayOrLaneManagement",
        "region": "South East",
        "road": "M20",
        "latitude": "51.095604",
        "longitude": "1.0521513"
      },
      {
        "county": "Sheffield District",
        "title": "M1 southbound between J35 and J34 | Southbound | Broken down vehicle",
        "region": "North East",
        "road": "M1",
        "latitude": "53.43067",
        "longitude": "-1.420038"
      }
    ],
    "Timestamp": "2022-04-02T22:00:38"
  },
  {
    "Results": [
      {
        "county": "Surrey",
        "title": "M25 clockwise between J5 and J6 | Clockwise | Broken down vehicle",
        "region": "South East",
        "road": "M25",
        "latitude": "51.28488",
        "longitude": "0.10901238"
      },
      {
        "county": "Kent",
        "title": "M2 J7 eastbound exit | Eastbound | Congestion",
        "region": "South East",
        "road": "M2",
        "latitude": "51.300053",
        "longitude": "0.9231624"
      },
      {
        "county": "Derbyshire",
        "title": "M1 northbound between J28 and J29 | Northbound | Broken down vehicle",
        "region": "East Midlands",
        "road": "M1",
        "latitude": "53.114685",
        "longitude": "-1.3335836"
      },
      {
        "county": "Oldham District",
        "title": "A663 southbound within the M60 junction | Southbound | Congestion",
        "region": "North West",
        "road": "A663",
        "latitude": "53.527546",
        "longitude": "-2.1590624"
      },
      {
        "county": "Kent",
        "title": "A282 northbound within the A206 junction | Anti-Clockwise | Congestion",
        "region": "South East",
        "road": "M25",
        "latitude": "51.453796",
        "longitude": "0.24315593"
      },
      {
        "county": "Greater London Authority",
        "title": "A3113 eastbound between M25 and A3044 | Eastbound | Congestion",
        "region": "Eastern",
        "road": "A3113",
        "latitude": "51.46432",
        "longitude": "-0.49477395"
      },
      {
        "county": "Gloucestershire",
        "title": "A40 westbound exit for A417 near Gloucester (north) | Westbound | Congestion",
        "region": "South West",
        "road": "A40",
        "latitude": "51.87891",
        "longitude": "-2.1991787"
      },
      {
        "county": "Kent",
        "title": "A20 eastbound access from M20/A259/A2034 | Eastbound | RoadOrCarriagewayOrLaneManagement",
        "region": "South East",
        "road": "A20",
        "latitude": "51.09581",
        "longitude": "1.1568221"
      },
      {
        "county": "Kent",
        "title": "A20 eastbound between M20/A259/A2034 and A260 | Eastbound | RoadOrCarriagewayOrLaneManagement",
        "region": "South East",
        "road": "A20",
        "latitude": "51.09589",
        "longitude": "1.1598532"
      },
      {
        "county": "Kent",
        "title": "A20 eastbound access from A260 | Eastbound | Congestion",
        "region": "South East",
        "road": "A20",
        "latitude": "51.106686",
        "longitude": "1.1733153"
      },
      {
        "county": "Kent",
        "title": "A20 eastbound between A256 near Dover (east) and A2 | Eastbound | Congestion",
        "region": "South East",
        "road": "A20",
        "latitude": "51.125347",
        "longitude": "1.3226712"
      },
      {
        "county": "Kent",
        "title": "M20 eastbound between J8 and J9 | Eastbound | RoadOrCarriagewayOrLaneManagement",
        "region": "South East",
        "road": "M20",
        "latitude": "51.260796",
        "longitude": "0.61932355"
      },
      {
        "county": "Wiltshire",
        "title": "A303 westbound between A345 and A360 | Westbound | Congestion",
        "region": "South West",
        "road": "A303",
        "latitude": "51.17761",
        "longitude": "-1.7972776"
      },
      {
        "county": "Kent",
        "title": "M20 J11 eastbound access | Eastbound | RoadOrCarriagewayOrLaneManagement",
        "region": "South East",
        "road": "M20",
        "latitude": "51.095604",
        "longitude": "1.0521513"
      },
      {
        "county": "West Sussex",
        "title": "A27 westbound between A286 and A259 near Chichester (west) | Westbound | Congestion",
        "region": "South East",
        "road": "A27",
        "latitude": "50.83029",
        "longitude": "-0.7915189"
      },
      {
        "county": "Swindon",
        "title": "M4 westbound between J15 and J16 | Westbound | Accident",
        "region": "South West",
        "road": "M4",
        "latitude": "51.527737",
        "longitude": "-1.7326902"
      },
      {
        "county": "Swindon",
        "title": "M4 J15 westbound access | Westbound | Accident",
        "region": "South West",
        "road": "M4",
        "latitude": "51.526787",
        "longitude": "-1.7276497"
      },
      {
        "county": "Swindon",
        "title": "M4 eastbound between J16 and J15 | Eastbound | Accident",
        "region": "South West",
        "road": "M4",
        "latitude": "51.540493",
        "longitude": "-1.8046329"
      }
    ],
    "Timestamp": "2022-04-02T09:00:39"
  },
  {
    "Results": [
      {
        "county": "Kent",
        "title": "A20 eastbound access from M20/A259/A2034 | Eastbound | RoadOrCarriagewayOrLaneManagement",
        "region": "South East",
        "road": "A20",
        "latitude": "51.09581",
        "longitude": "1.1568221"
      },
      {
        "county": "Kent",
        "title": "A20 eastbound between M20/A259/A2034 and A260 | Eastbound | RoadOrCarriagewayOrLaneManagement",
        "region": "South East",
        "road": "A20",
        "latitude": "51.09589",
        "longitude": "1.1598532"
      },
      {
        "county": "Kent",
        "title": "M20 eastbound between J8 and J9 | Eastbound | RoadOrCarriagewayOrLaneManagement",
        "region": "South East",
        "road": "M20",
        "latitude": "51.260796",
        "longitude": "0.61932355"
      },
      {
        "county": "Kent",
        "title": "M20 J11 eastbound access | Eastbound | RoadOrCarriagewayOrLaneManagement",
        "region": "South East",
        "road": "M20",
        "latitude": "51.095604",
        "longitude": "1.0521513"
      },
      {
        "county": "Swindon",
        "title": "M4 westbound between J15 and J16 | Westbound | Accident",
        "region": "South West",
        "road": "M4",
        "latitude": "51.527737",
        "longitude": "-1.7326902"
      },
      {
        "county": "Buckinghamshire",
        "title": "fast slip from M40 J4 northbound to A404 southbound | Southbound | Congestion",
        "region": "Eastern",
        "road": "A404",
        "latitude": "51.6119",
        "longitude": "-0.76720446"
      },
      {
        "county": "Swindon",
        "title": "M4 J15 westbound access | Westbound | Accident",
        "region": "South West",
        "road": "M4",
        "latitude": "51.526787",
        "longitude": "-1.7276497"
      },
      {
        "county": "Swindon",
        "title": "M4 eastbound between J16 and J15 | Eastbound | Accident",
        "region": "South West",
        "road": "M4",
        "latitude": "51.540493",
        "longitude": "-1.8046329"
      }
    ],
    "Timestamp": "2022-04-02T07:00:39"
  },
  {
    "Results": [
      {
        "county": "Kent",
        "title": "A21 southbound between A228 and B2160 | Southbound | Congestion",
        "region": "South East",
        "road": "A21",
        "latitude": "51.137268",
        "longitude": "0.34279782"
      },
      {
        "county": "Hampshire",
        "title": "A303 westbound within the B3048 junction | Westbound | Congestion",
        "region": "South East",
        "road": "A303",
        "latitude": "51.179943",
        "longitude": "-1.368859"
      },
      {
        "county": "Sandwell District",
        "title": "link road from M5 northbound to M6 J8 northbound | Northbound | Congestion",
        "region": "West Midlands",
        "road": "M5",
        "latitude": "52.54788",
        "longitude": "-1.9682069"
      },
      {
        "county": "Buckinghamshire",
        "title": "M40 J4 southbound exit | Southbound | Congestion",
        "region": "Eastern",
        "road": "M40",
        "latitude": "51.61277",
        "longitude": "-0.7696817"
      },
      {
        "county": "Kent",
        "title": "A2 westbound between A2050 near Canterbury (west) and M2 | Westbound | Congestion",
        "region": "South East",
        "road": "A2",
        "latitude": "51.300213",
        "longitude": "0.9311471"
      },
      {
        "county": "Suffolk",
        "title": "A12 northbound between B1070 and A14 | Northbound | Congestion",
        "region": "Eastern",
        "road": "A12",
        "latitude": "51.971626",
        "longitude": "0.98299086"
      },
      {
        "county": "Kent",
        "title": "M2 eastbound between J6 and J7 | Eastbound | Congestion",
        "region": "South East",
        "road": "M2",
        "latitude": "51.30106",
        "longitude": "0.88526744"
      },
      {
        "county": "Cornwall",
        "title": "A30 eastbound between A390 and A39 near Newquay (west) | Eastbound | Congestion",
        "region": "South West",
        "road": "A30",
        "latitude": "50.328735",
        "longitude": "-5.07225"
      },
      {
        "county": "Wiltshire",
        "title": "A36 northbound between A345 and A360 | Northbound | Congestion",
        "region": "South West",
        "road": "A36",
        "latitude": "51.072952",
        "longitude": "-1.8022457"
      },
      {
        "county": "Leeds District",
        "title": "M1 J47 northbound exit | Northbound | Broken down vehicle",
        "region": "North East",
        "road": "M1",
        "latitude": "53.806305",
        "longitude": "-1.3653095"
      },
      {
        "county": "Doncaster District",
        "title": "A1(M) northbound within J36 | Northbound | Congestion",
        "region": "North East",
        "road": "A1(M)",
        "latitude": "53.475452",
        "longitude": "-1.1446469"
      },
      {
        "county": "Kent",
        "title": "A20 eastbound between B2011 and A256 near Dover (west) | Eastbound | Congestion",
        "region": "South East",
        "road": "A20",
        "latitude": "51.120422",
        "longitude": "1.3095171"
      },
      {
        "county": "Kent",
        "title": "A20 eastbound access from M20/A259/A2034 | Eastbound | RoadOrCarriagewayOrLaneManagement",
        "region": "South East",
        "road": "A20",
        "latitude": "51.09581",
        "longitude": "1.1568221"
      },
      {
        "county": "Northamptonshire",
        "title": "A45 eastbound exit for A43 | Eastbound | Accident",
        "region": "East Midlands",
        "road": "A45",
        "latitude": "52.24417",
        "longitude": "-0.83909094"
      },
      {
        "county": "Northamptonshire",
        "title": "A45 westbound exit for A43 | Westbound | Accident",
        "region": "East Midlands",
        "road": "A45",
        "latitude": "52.246037",
        "longitude": "-0.83310825"
      },
      {
        "county": "Northamptonshire",
        "title": "A45 eastbound within the A43 junction | Eastbound | Congestion",
        "region": "East Midlands",
        "road": "A45",
        "latitude": "52.232475",
        "longitude": "-0.8640197"
      },
      {
        "county": "Kent",
        "title": "A20 eastbound between M20/A259/A2034 and A260 | Eastbound | RoadOrCarriagewayOrLaneManagement",
        "region": "South East",
        "road": "A20",
        "latitude": "51.09589",
        "longitude": "1.1598532"
      },
      {
        "county": "Hampshire",
        "title": "M27 J7 eastbound exit | Eastbound | Broken down vehicle",
        "region": "South East",
        "road": "M27",
        "latitude": "50.919365",
        "longitude": "-1.3158352"
      },
      {
        "county": "Essex",
        "title": "A120 eastbound within the B1008/B1256 junction | Eastbound | Congestion",
        "region": "Eastern",
        "road": "A120",
        "latitude": "51.85912",
        "longitude": "0.37670177"
      },
      {
        "county": "Middlesbrough",
        "title": "A19 northbound within the A1130 junction | Northbound | Congestion",
        "region": "North East",
        "road": "A19",
        "latitude": "54.54897",
        "longitude": "-1.274665"
      },
      {
        "county": "Kent",
        "title": "M20 eastbound between J8 and J9 | Eastbound | RoadOrCarriagewayOrLaneManagement",
        "region": "South East",
        "road": "M20",
        "latitude": "51.260796",
        "longitude": "0.61932355"
      },
      {
        "county": "Northamptonshire",
        "title": "A45 eastbound between A6 and B663 | Eastbound | Congestion",
        "region": "East Midlands",
        "road": "A45",
        "latitude": "52.3448",
        "longitude": "-0.56698716"
      },
      {
        "county": "Northamptonshire",
        "title": "A45 westbound between B663 and A6 | Westbound | Accident",
        "region": "East Midlands",
        "road": "A45",
        "latitude": "52.35202",
        "longitude": "-0.55228746"
      },
      {
        "county": "Trafford District",
        "title": "M60 J9 clockwise exit | Clockwise | Congestion",
        "region": "North West",
        "road": "M60",
        "latitude": "53.456715",
        "longitude": "-2.3390415"
      },
      {
        "county": "Kent",
        "title": "M20 J11 eastbound access | Eastbound | RoadOrCarriagewayOrLaneManagement",
        "region": "South East",
        "road": "M20",
        "latitude": "51.095604",
        "longitude": "1.0521513"
      },
      {
        "county": "South Gloucestershire",
        "title": "M4 J19 westbound access | Westbound | Congestion",
        "region": "South West",
        "road": "M4",
        "latitude": "51.514328",
        "longitude": "-2.519492"
      },
      {
        "county": "South Gloucestershire",
        "title": "M4 westbound within J19 | Westbound | Congestion",
        "region": "South West",
        "road": "M4",
        "latitude": "51.51296",
        "longitude": "-2.5181673"
      },
      {
        "county": "Wiltshire",
        "title": "A303 eastbound between A36 and A360 | Eastbound | Congestion",
        "region": "South West",
        "road": "A303",
        "latitude": "51.163155",
        "longitude": "-1.928388"
      },
      {
        "county": "Wiltshire",
        "title": "A303 westbound between A360 and A36 | Westbound | Congestion",
        "region": "South West",
        "road": "A303",
        "latitude": "51.176865",
        "longitude": "-1.7815522"
      }
    ],
    "Timestamp": "2022-04-02T11:00:39"
  },
  {
    "Results": [
      {
        "county": "Buckinghamshire",
        "title": "M40 J4 southbound exit | Southbound | Congestion",
        "region": "Eastern",
        "road": "M40",
        "latitude": "51.61277",
        "longitude": "-0.7696817"
      },
      {
        "county": "Surrey",
        "title": "A30 eastbound between M25 and A308 | Eastbound | Congestion",
        "region": "South East",
        "road": "A30",
        "latitude": "51.437218",
        "longitude": "-0.50056523"
      },
      {
        "county": "Greater London Authority",
        "title": "M4 spur (Heathrow) southbound between M4 and J4A | Westbound | Congestion",
        "region": "Eastern",
        "road": "M4",
        "latitude": "51.494366",
        "longitude": "-0.4533545"
      },
      {
        "county": "County of Herefordshire",
        "title": "A49 northbound between A438 near Hereford (south) and A438 near Hereford (north) | Northbound | Congestion",
        "region": "West Midlands",
        "road": "A49",
        "latitude": "52.057262",
        "longitude": "-2.7203546"
      },
      {
        "county": "Kent",
        "title": "A20 eastbound between A256 near Dover (east) and A2 | Eastbound | Congestion",
        "region": "South East",
        "road": "A20",
        "latitude": "51.12296",
        "longitude": "1.3124447"
      },
      {
        "county": "Surrey",
        "title": "M3 eastbound between J3 and J2 | Eastbound | Accident",
        "region": "South East",
        "road": "M3",
        "latitude": "51.389507",
        "longitude": "-0.5694979"
      },
      {
        "county": "Sheffield District",
        "title": "M1 southbound within J34 | Southbound | General Obstruction",
        "region": "North East",
        "road": "M1",
        "latitude": "53.418827",
        "longitude": "-1.407291"
      },
      {
        "county": "Kent",
        "title": "M20 J11 eastbound access | Eastbound | RoadOrCarriagewayOrLaneManagement",
        "region": "South East",
        "road": "M20",
        "latitude": "51.095604",
        "longitude": "1.0521513"
      }
    ],
    "Timestamp": "2022-04-03T08:00:38"
  },
  {
    "Results": [
      {
        "county": "Surrey",
        "title": "M25 anti-clockwise between J6 and J5 | Anti-Clockwise | Accident",
        "region": "South East",
        "road": "M25",
        "latitude": "51.264763",
        "longitude": "-0.02758538"
      },
      {
        "county": "Tameside District",
        "title": "M60 anti-clockwise between J24 and J23 | Anti-Clockwise | Vehicle Fire",
        "region": "North West",
        "road": "M60",
        "latitude": "53.473003",
        "longitude": "-2.131021"
      },
      {
        "county": "Tameside District",
        "title": "M60 clockwise between J23 and J24 | Clockwise | Vehicle Fire",
        "region": "North West",
        "road": "M60",
        "latitude": "53.473892",
        "longitude": "-2.1286316"
      },
      {
        "county": "Kent",
        "title": "A20 eastbound between A256 near Dover (east) and A2 | Eastbound | Congestion",
        "region": "South East",
        "road": "A20",
        "latitude": "51.12296",
        "longitude": "1.3124447"
      },
      {
        "county": "Kent",
        "title": "M20 eastbound between J8 and J9 | Eastbound | RoadOrCarriagewayOrLaneManagement",
        "region": "South East",
        "road": "M20",
        "latitude": "51.260796",
        "longitude": "0.61932355"
      },
      {
        "county": "Leeds District",
        "title": "M1 southbound within J45 | Southbound | Accident",
        "region": "North East",
        "road": "M1",
        "latitude": "53.776543",
        "longitude": "-1.4680312"
      },
      {
        "county": "Kent",
        "title": "M20 J11 eastbound access | Eastbound | RoadOrCarriagewayOrLaneManagement",
        "region": "South East",
        "road": "M20",
        "latitude": "51.095604",
        "longitude": "1.0521513"
      }
    ],
    "Timestamp": "2022-04-03T03:00:38"
  },
  {
    "Results": [
      {
        "county": "Hertfordshire",
        "title": "M25 clockwise within J20 | Clockwise | Congestion",
        "region": "Eastern",
        "road": "M25",
        "latitude": "51.699352",
        "longitude": "-0.44459647"
      },
      {
        "county": "Lancashire",
        "title": "M65 J7 westbound exit | Westbound | Accident",
        "region": "North West",
        "road": "M65",
        "latitude": "53.766335",
        "longitude": "-2.3889391"
      },
      {
        "county": "Wakefield District",
        "title": "M62 J31 eastbound exit | Eastbound | Accident",
        "region": "North East",
        "road": "M62",
        "latitude": "53.709103",
        "longitude": "-1.3968782"
      },
      {
        "county": "Kirklees District",
        "title": "M62 eastbound between J26 and J27 | Eastbound | Accident",
        "region": "North East",
        "road": "M62",
        "latitude": "53.74584",
        "longitude": "-1.7098718"
      },
      {
        "county": "West Sussex",
        "title": "A23 southbound within the A273 junction | Southbound | AuthorityOperation",
        "region": "South East",
        "road": "A23",
        "latitude": "50.96441",
        "longitude": "-0.1935964"
      },
      {
        "county": "Milton Keynes",
        "title": "M1 J14 northbound access | Northbound | RoadOrCarriagewayOrLaneManagement",
        "region": "Eastern",
        "road": "M1",
        "latitude": "52.058887",
        "longitude": "-0.7013574"
      },
      {
        "county": "Kent",
        "title": "M20 eastbound between J8 and J9 | Eastbound | RoadOrCarriagewayOrLaneManagement",
        "region": "South East",
        "road": "M20",
        "latitude": "51.260796",
        "longitude": "0.61932355"
      },
      {
        "county": "Greater London Authority",
        "title": "M25 clockwise between J25 and J26 | Clockwise | Accident",
        "region": "Eastern",
        "road": "M25",
        "latitude": "51.682507",
        "longitude": "-0.035925783"
      }
    ],
    "Timestamp": "2022-04-01T23:41:39"
  },
  {
    "Results": [
      {
        "county": "West Sussex",
        "title": "A27 eastbound between A24 near Worthing (west) and A24 near Worthing (east) | Eastbound | Congestion",
        "region": "South East",
        "road": "A27",
        "latitude": "50.83665",
        "longitude": "-0.38634756"
      },
      {
        "county": "Kent",
        "title": "A21 southbound between A228 and B2160 | Southbound | Congestion",
        "region": "South East",
        "road": "A21",
        "latitude": "51.137268",
        "longitude": "0.34279782"
      },
      {
        "county": "East Sussex",
        "title": "A2270 northbound within the A27 junction | Northbound | Congestion",
        "region": "South East",
        "road": "A2270",
        "latitude": "50.82038",
        "longitude": "0.23918775"
      },
      {
        "county": "Surrey",
        "title": "M25 clockwise between J8 and J9 | Clockwise | Accident",
        "region": "South East",
        "road": "M25",
        "latitude": "51.270382",
        "longitude": "-0.2538507"
      },
      {
        "county": "Kent",
        "title": "M2 J7 eastbound exit | Eastbound | Congestion",
        "region": "South East",
        "road": "M2",
        "latitude": "51.30106",
        "longitude": "0.88526744"
      },
      {
        "county": "Kent",
        "title": "A2 westbound between A2050 near Canterbury (west) and M2 | Westbound | Congestion",
        "region": "South East",
        "road": "A2",
        "latitude": "51.300213",
        "longitude": "0.9311471"
      },
      {
        "county": "Cumbria",
        "title": "A590 westbound between B5278 and A5092 | Westbound | Congestion",
        "region": "North West",
        "road": "A590",
        "latitude": "54.26357",
        "longitude": "-2.9839425"
      },
      {
        "county": "Surrey",
        "title": "A30 westbound between A308 and M25 | Westbound | Congestion",
        "region": "South East",
        "road": "A30",
        "latitude": "51.43671",
        "longitude": "-0.49919838"
      },
      {
        "county": "Luton",
        "title": "M1 southbound between J12 and J11A | Southbound | Accident",
        "region": "Eastern",
        "road": "M1",
        "latitude": "51.945293",
        "longitude": "-0.50046813"
      },
      {
        "county": "Suffolk",
        "title": "A12 northbound between B1070 and A14 | Northbound | Congestion",
        "region": "Eastern",
        "road": "A12",
        "latitude": "51.971626",
        "longitude": "0.98299086"
      },
      {
        "county": "Essex",
        "title": "M11 J7 northbound exit | Northbound | Congestion",
        "region": "Eastern",
        "road": "M11",
        "latitude": "51.740818",
        "longitude": "0.1363101"
      },
      {
        "county": "Surrey",
        "title": "link road from M3 J2 eastbound to M25 J12 anti-clockwise | Anti-Clockwise | Congestion",
        "region": "South East",
        "road": "M25",
        "latitude": "51.401688",
        "longitude": "-0.53594166"
      },
      {
        "county": "Wiltshire",
        "title": "A36 northbound between A345 and A360 | Northbound | Congestion",
        "region": "South West",
        "road": "A36",
        "latitude": "51.072952",
        "longitude": "-1.8022457"
      },
      {
        "county": "Wiltshire",
        "title": "A36 southbound between A30 (east) and A338 | Southbound | Congestion",
        "region": "South West",
        "road": "A36",
        "latitude": "51.067978",
        "longitude": "-1.7896606"
      },
      {
        "county": "Leeds District",
        "title": "M1 J47 northbound exit | Northbound | Broken down vehicle",
        "region": "North East",
        "road": "M1",
        "latitude": "53.806305",
        "longitude": "-1.3653095"
      },
      {
        "county": "County of Herefordshire",
        "title": "A49 northbound between B4399 and A465 | Northbound | Congestion",
        "region": "West Midlands",
        "road": "A49",
        "latitude": "52.046597",
        "longitude": "-2.7205353"
      },
      {
        "county": "The City of Brighton and Hove",
        "title": "link road from A27 to A23 northbound | Northbound | Congestion",
        "region": "South East",
        "road": "A23",
        "latitude": "50.867775",
        "longitude": "-0.15330933"
      },
      {
        "county": "Windsor and Maidenhead",
        "title": "M4 J8 eastbound exit | Eastbound | Congestion",
        "region": "Eastern",
        "road": "M4",
        "latitude": "51.498554",
        "longitude": "-0.72709686"
      },
      {
        "county": "Kent",
        "title": "A2 eastbound between A258 and A20 | Eastbound | Congestion",
        "region": "South East",
        "road": "A2",
        "latitude": "51.126022",
        "longitude": "1.3271687"
      },
      {
        "county": "Kent",
        "title": "A20 eastbound access from M20/A259/A2034 | Eastbound | RoadOrCarriagewayOrLaneManagement",
        "region": "South East",
        "road": "A20",
        "latitude": "51.09581",
        "longitude": "1.1568221"
      },
      {
        "county": "Northamptonshire",
        "title": "A45 eastbound exit for A428/A5095 | Eastbound | Congestion",
        "region": "East Midlands",
        "road": "A45",
        "latitude": "52.228714",
        "longitude": "-0.87062436"
      },
      {
        "county": "Northamptonshire",
        "title": "A45 eastbound exit for A5076 near Northampton (east) | Eastbound | Congestion",
        "region": "East Midlands",
        "road": "A45",
        "latitude": "52.25032",
        "longitude": "-0.81108004"
      },
      {
        "county": "Northamptonshire",
        "title": "A45 eastbound between A428/A5095 and A43 | Eastbound | Congestion",
        "region": "East Midlands",
        "road": "A45",
        "latitude": "52.227905",
        "longitude": "-0.8710617"
      },
      {
        "county": "Northamptonshire",
        "title": "A45 eastbound exit for A43 | Eastbound | Accident",
        "region": "East Midlands",
        "road": "A45",
        "latitude": "52.24417",
        "longitude": "-0.83909094"
      },
      {
        "county": "Northamptonshire",
        "title": "A45 westbound exit for A43 | Westbound | Accident",
        "region": "East Midlands",
        "road": "A45",
        "latitude": "52.246037",
        "longitude": "-0.83310825"
      },
      {
        "county": "Kent",
        "title": "A20 eastbound between M20/A259/A2034 and A260 | Eastbound | RoadOrCarriagewayOrLaneManagement",
        "region": "South East",
        "road": "A20",
        "latitude": "51.09589",
        "longitude": "1.1598532"
      },
      {
        "county": "Essex",
        "title": "A120 eastbound between B1008/B1256 and B1256 near Rayne (west) | Eastbound | Accident",
        "region": "Eastern",
        "road": "A120",
        "latitude": "51.8608",
        "longitude": "0.3833218"
      },
      {
        "county": "Essex",
        "title": "A120 eastbound access from B1008/B1256 | Eastbound | Accident",
        "region": "Eastern",
        "road": "A120",
        "latitude": "51.859764",
        "longitude": "0.3775283"
      },
      {
        "county": "Kent",
        "title": "A20 eastbound between A256 near Dover (east) and A2 | Eastbound | Congestion",
        "region": "South East",
        "road": "A20",
        "latitude": "51.103886",
        "longitude": "1.2461857"
      },
      {
        "county": "Hertfordshire",
        "title": "M25 clockwise between J24 and J25 | Clockwise | Broken down vehicle",
        "region": "Eastern",
        "road": "M25",
        "latitude": "51.685375",
        "longitude": "-0.15084675"
      },
      {
        "county": "Wiltshire",
        "title": "A36 northbound between A27 and A338 | Northbound | Congestion",
        "region": "South West",
        "road": "A36",
        "latitude": "51.06161",
        "longitude": "-1.7685578"
      },
      {
        "county": "Middlesbrough",
        "title": "A19 northbound between A174 and A1130 | Northbound | Congestion",
        "region": "North East",
        "road": "A19",
        "latitude": "54.53094",
        "longitude": "-1.2806635"
      },
      {
        "county": "Oxfordshire",
        "title": "A34 northbound between A44 and B4027 | Northbound | Congestion",
        "region": "Eastern",
        "road": "A34",
        "latitude": "51.812325",
        "longitude": "-1.2674714"
      },
      {
        "county": "Kent",
        "title": "M20 eastbound between J8 and J9 | Eastbound | RoadOrCarriagewayOrLaneManagement",
        "region": "South East",
        "road": "M20",
        "latitude": "51.260796",
        "longitude": "0.61932355"
      },
      {
        "county": "Kent",
        "title": "M20 eastbound between J7 and J8 | Eastbound | Congestion",
        "region": "South East",
        "road": "M20",
        "latitude": "51.27982",
        "longitude": "0.58708537"
      },
      {
        "county": "Northamptonshire",
        "title": "A45 westbound between B663 and A6 | Westbound | Accident",
        "region": "East Midlands",
        "road": "A45",
        "latitude": "52.35202",
        "longitude": "-0.55228746"
      },
      {
        "county": "Kent",
        "title": "M20 J11 eastbound access | Eastbound | RoadOrCarriagewayOrLaneManagement",
        "region": "South East",
        "road": "M20",
        "latitude": "51.095604",
        "longitude": "1.0521513"
      },
      {
        "county": "Hertfordshire",
        "title": "M1 northbound between J8 and J9 | Northbound | Accident",
        "region": "Eastern",
        "road": "M1",
        "latitude": "51.773228",
        "longitude": "-0.41368324"
      },
      {
        "county": "Wakefield District",
        "title": "A162 northbound exit for M62 | Northbound | RoadOrCarriagewayOrLaneManagement",
        "region": "North East",
        "road": "A162",
        "latitude": "53.694214",
        "longitude": "-1.267746"
      },
      {
        "county": "Wiltshire",
        "title": "A303 eastbound between A36 and A360 | Eastbound | Congestion",
        "region": "South West",
        "road": "A303",
        "latitude": "51.14608",
        "longitude": "-1.9815943"
      },
      {
        "county": "Wiltshire",
        "title": "A303 westbound between A360 and A36 | Westbound | Congestion",
        "region": "South West",
        "road": "A303",
        "latitude": "51.176865",
        "longitude": "-1.7815522"
      }
    ],
    "Timestamp": "2022-04-02T12:00:39"
  },
  {
    "Results": [
      {
        "county": "Warwickshire",
        "title": "A46 northbound exit for M40 J15 | Northbound | Congestion",
        "region": "West Midlands",
        "road": "A46",
        "latitude": "52.259884",
        "longitude": "-1.6154898"
      },
      {
        "county": "Northamptonshire",
        "title": "M1 northbound between J16 and J17 | Northbound | Accident",
        "region": "East Midlands",
        "road": "M1",
        "latitude": "52.293182",
        "longitude": "-1.1100249"
      },
      {
        "county": "Derbyshire",
        "title": "M1 northbound between J28 and J29 | Northbound | Broken down vehicle",
        "region": "East Midlands",
        "road": "M1",
        "latitude": "53.114685",
        "longitude": "-1.3335836"
      },
      {
        "county": "Hampshire",
        "title": "M27 westbound within J1 | Westbound | Congestion",
        "region": "South East",
        "road": "M27",
        "latitude": "50.920662",
        "longitude": "-1.5890557"
      },
      {
        "county": "Leeds District",
        "title": "M1 J47 northbound exit | Northbound | Broken down vehicle",
        "region": "North East",
        "road": "M1",
        "latitude": "53.806305",
        "longitude": "-1.3653095"
      },
      {
        "county": "The City of Brighton and Hove",
        "title": "link road from A27 to A23 northbound | Northbound | Congestion",
        "region": "South East",
        "road": "A23",
        "latitude": "50.867775",
        "longitude": "-0.15330933"
      },
      {
        "county": "Windsor and Maidenhead",
        "title": "A308(M) westbound between A308 and M4/A404(M) | Westbound | Congestion",
        "region": "Eastern",
        "road": "A308(M)",
        "latitude": "51.50304",
        "longitude": "-0.7191078"
      },
      {
        "county": "Kent",
        "title": "A20 eastbound access from M20/A259/A2034 | Eastbound | RoadOrCarriagewayOrLaneManagement",
        "region": "South East",
        "road": "A20",
        "latitude": "51.09581",
        "longitude": "1.1568221"
      },
      {
        "county": "Northamptonshire",
        "title": "A45 eastbound exit for A43 | Eastbound | Accident",
        "region": "East Midlands",
        "road": "A45",
        "latitude": "52.24417",
        "longitude": "-0.83909094"
      },
      {
        "county": "Northamptonshire",
        "title": "A45 westbound exit for A43 | Westbound | Accident",
        "region": "East Midlands",
        "road": "A45",
        "latitude": "52.246037",
        "longitude": "-0.83310825"
      },
      {
        "county": "Kent",
        "title": "A20 eastbound between M20/A259/A2034 and A260 | Eastbound | RoadOrCarriagewayOrLaneManagement",
        "region": "South East",
        "road": "A20",
        "latitude": "51.09589",
        "longitude": "1.1598532"
      },
      {
        "county": "Hampshire",
        "title": "A31 westbound between M27 and A338 near Ringwood (east) | Westbound | Congestion",
        "region": "South East",
        "road": "A31",
        "latitude": "50.911564",
        "longitude": "-1.6039138"
      },
      {
        "county": "Sheffield District",
        "title": "M1 southbound within J35 | Southbound | Broken down vehicle",
        "region": "North East",
        "road": "M1",
        "latitude": "53.459038",
        "longitude": "-1.4463654"
      },
      {
        "county": "Kent",
        "title": "M20 eastbound between J8 and J9 | Eastbound | RoadOrCarriagewayOrLaneManagement",
        "region": "South East",
        "road": "M20",
        "latitude": "51.260796",
        "longitude": "0.61932355"
      },
      {
        "county": "City of Bristol",
        "title": "M32 southbound within J3 | Southbound | Congestion",
        "region": "South West",
        "road": "M32",
        "latitude": "51.466904",
        "longitude": "-2.573324"
      },
      {
        "county": "Wiltshire",
        "title": "A303 westbound between A345 and A360 | Westbound | Congestion",
        "region": "South West",
        "road": "A303",
        "latitude": "51.17761",
        "longitude": "-1.7972776"
      },
      {
        "county": "Kent",
        "title": "M20 eastbound between J7 and J8 | Eastbound | Congestion",
        "region": "South East",
        "road": "M20",
        "latitude": "51.27982",
        "longitude": "0.58708537"
      },
      {
        "county": "Kent",
        "title": "M20 J11 eastbound access | Eastbound | RoadOrCarriagewayOrLaneManagement",
        "region": "South East",
        "road": "M20",
        "latitude": "51.095604",
        "longitude": "1.0521513"
      },
      {
        "county": "West Sussex",
        "title": "A27 eastbound between A259 near Emsworth and A259 near Chichester (west) | Eastbound | Congestion",
        "region": "South East",
        "road": "A27",
        "latitude": "50.855442",
        "longitude": "-0.87528336"
      },
      {
        "county": "West Sussex",
        "title": "A27 westbound between A286 and A259 near Chichester (west) | Westbound | Congestion",
        "region": "South East",
        "road": "A27",
        "latitude": "50.83029",
        "longitude": "-0.7915189"
      },
      {
        "county": "Swindon",
        "title": "M4 westbound between J15 and J16 | Westbound | Accident",
        "region": "South West",
        "road": "M4",
        "latitude": "51.527737",
        "longitude": "-1.7326902"
      },
      {
        "county": "Swindon",
        "title": "M4 eastbound between J16 and J15 | Eastbound | Accident",
        "region": "South West",
        "road": "M4",
        "latitude": "51.540493",
        "longitude": "-1.8046329"
      },
      {
        "county": "Swindon",
        "title": "M4 eastbound between J16 and J15 | Eastbound | Congestion",
        "region": "South West",
        "road": "M4",
        "latitude": "51.539043",
        "longitude": "-1.7884394"
      }
    ],
    "Timestamp": "2022-04-02T10:00:39"
  },
  {
    "Results": [
      {
        "county": "Kent",
        "title": "A282 northbound within the A206 junction | Anti-Clockwise | Congestion",
        "region": "South East",
        "road": "M25",
        "latitude": "51.453796",
        "longitude": "0.24315593"
      },
      {
        "county": "Stockport District",
        "title": "M60 clockwise between J1 and J2 | Clockwise | Congestion",
        "region": "North West",
        "road": "M60",
        "latitude": "53.4041",
        "longitude": "-2.1943069"
      },
      {
        "county": "Medway",
        "title": "M2 eastbound between J4 and J5 | Eastbound | Congestion",
        "region": "South East",
        "road": "M2",
        "latitude": "51.33967",
        "longitude": "0.63633925"
      },
      {
        "county": "Cambridgeshire",
        "title": "A14 westbound between J31 and J25 | Westbound | Broken down vehicle",
        "region": "Eastern",
        "road": "A14",
        "latitude": "52.250305",
        "longitude": "0.038348325"
      },
      {
        "county": "Suffolk",
        "title": "A14 J57 westbound exit | Westbound | Congestion",
        "region": "Eastern",
        "road": "A14",
        "latitude": "52.025238",
        "longitude": "1.2105235"
      },
      {
        "county": "Kent",
        "title": "A20 eastbound between B2011 and A256 near Dover (west) | Eastbound | Congestion",
        "region": "South East",
        "road": "A20",
        "latitude": "51.120422",
        "longitude": "1.3095171"
      },
      {
        "county": "Windsor and Maidenhead",
        "title": "M4 J8 eastbound exit | Eastbound | Congestion",
        "region": "Eastern",
        "road": "M4",
        "latitude": "51.498554",
        "longitude": "-0.72709686"
      },
      {
        "county": "Manchester District",
        "title": "M56 eastbound within J3A | Eastbound | Congestion",
        "region": "North West",
        "road": "M56",
        "latitude": "53.3992",
        "longitude": "-2.2689776"
      },
      {
        "county": "Kent",
        "title": "A20 eastbound access from M20/A259/A2034 | Eastbound | RoadOrCarriagewayOrLaneManagement",
        "region": "South East",
        "road": "A20",
        "latitude": "51.09581",
        "longitude": "1.1568221"
      },
      {
        "county": "Kent",
        "title": "A20 eastbound between M20/A259/A2034 and A260 | Eastbound | RoadOrCarriagewayOrLaneManagement",
        "region": "South East",
        "road": "A20",
        "latitude": "51.09589",
        "longitude": "1.1598532"
      },
      {
        "county": "County of Herefordshire",
        "title": "A49 northbound between A438 near Hereford (south) and A438 near Hereford (north) | Northbound | Congestion",
        "region": "West Midlands",
        "road": "A49",
        "latitude": "52.057262",
        "longitude": "-2.7203546"
      },
      {
        "county": "Leeds District",
        "title": "M1 southbound within J42 | Southbound | AuthorityOperation",
        "region": "North East",
        "road": "M1",
        "latitude": "53.740265",
        "longitude": "-1.5132638"
      },
      {
        "county": "Leeds District",
        "title": "M62 J29 eastbound exit | Eastbound | AuthorityOperation",
        "region": "North East",
        "road": "M62",
        "latitude": "53.73206",
        "longitude": "-1.5164214"
      },
      {
        "county": "Leeds District",
        "title": "M1 northbound between J41 and J42 | Northbound | AuthorityOperation",
        "region": "North East",
        "road": "M1",
        "latitude": "53.71837",
        "longitude": "-1.5300379"
      },
      {
        "county": "Wakefield District",
        "title": "M1 northbound between J40 and J41 | Northbound | Congestion",
        "region": "North East",
        "road": "M1",
        "latitude": "53.701912",
        "longitude": "-1.5552559"
      },
      {
        "county": "Leeds District",
        "title": "M1 southbound between J44 and J43 | Southbound | Congestion",
        "region": "North East",
        "road": "M1",
        "latitude": "53.764168",
        "longitude": "-1.4851359"
      },
      {
        "county": "Stockport District",
        "title": "M60 clockwise within J3 | Clockwise | Accident",
        "region": "North West",
        "road": "M60",
        "latitude": "53.399235",
        "longitude": "-2.222547"
      },
      {
        "county": "Kent",
        "title": "M20 eastbound between J8 and J9 | Eastbound | RoadOrCarriagewayOrLaneManagement",
        "region": "South East",
        "road": "M20",
        "latitude": "51.260796",
        "longitude": "0.61932355"
      },
      {
        "county": "Trafford District",
        "title": "M60 J7 anti-clockwise exit for Stretford | Anti-Clockwise | Congestion",
        "region": "North West",
        "road": "M60",
        "latitude": "53.438015",
        "longitude": "-2.3150694"
      },
      {
        "county": "Kent",
        "title": "M20 J11 eastbound access | Eastbound | RoadOrCarriagewayOrLaneManagement",
        "region": "South East",
        "road": "M20",
        "latitude": "51.095604",
        "longitude": "1.0521513"
      },
      {
        "county": "North Tyneside District",
        "title": "A19 southbound between A1 and A1068 | Southbound | Congestion",
        "region": "North East",
        "road": "A19",
        "latitude": "55.064976",
        "longitude": "-1.6340371"
      },
      {
        "county": "Leeds District",
        "title": "M62 J30 eastbound exit | Eastbound | Congestion",
        "region": "North East",
        "road": "M62",
        "latitude": "53.728676",
        "longitude": "-1.4613442"
      },
      {
        "county": "Salford District",
        "title": "link road from M61 J1 to M60 J15 anti-clockwise | Southbound | Congestion",
        "region": "North West",
        "road": "M61",
        "latitude": "53.52335",
        "longitude": "-2.361401"
      }
    ],
    "Timestamp": "2022-04-02T15:00:39"
  },
  {
    "Results": [
      {
        "county": "Milton Keynes",
        "title": "M1 J14 northbound access | Northbound | RoadOrCarriagewayOrLaneManagement",
        "region": "Eastern",
        "road": "M1",
        "latitude": "52.058887",
        "longitude": "-0.7013574"
      },
      {
        "county": "Surrey",
        "title": "M3 westbound between J2 and J3 | Westbound | Broken down vehicle",
        "region": "South East",
        "road": "M3",
        "latitude": "51.358788",
        "longitude": "-0.6682975"
      },
      {
        "county": "Kent",
        "title": "M20 eastbound between J8 and J9 | Eastbound | RoadOrCarriagewayOrLaneManagement",
        "region": "South East",
        "road": "M20",
        "latitude": "51.260796",
        "longitude": "0.61932355"
      }
    ],
    "Timestamp": "2022-04-02T01:00:39"
  },
  {
    "Results": [
      {
        "county": "Dudley District",
        "title": "M5 northbound between J4 and J3 | Northbound | Congestion",
        "region": "West Midlands",
        "road": "M5",
        "latitude": "52.40694",
        "longitude": "-2.0338354"
      },
      {
        "county": "Dudley District",
        "title": "M5 northbound between J4 and J3 | Northbound | Accident",
        "region": "West Midlands",
        "road": "M5",
        "latitude": "52.397617",
        "longitude": "-2.0535047"
      },
      {
        "county": "Kent",
        "title": "M2 eastbound between J5 and J6 | Eastbound | Broken down vehicle",
        "region": "South East",
        "road": "M2",
        "latitude": "51.31609",
        "longitude": "0.69980896"
      },
      {
        "county": "Medway",
        "title": "M2 eastbound between J4 and J5 | Eastbound | Congestion",
        "region": "South East",
        "road": "M2",
        "latitude": "51.33967",
        "longitude": "0.63633925"
      },
      {
        "county": "Windsor and Maidenhead",
        "title": "M4 J8 eastbound exit | Eastbound | Congestion",
        "region": "Eastern",
        "road": "M4",
        "latitude": "51.498554",
        "longitude": "-0.72709686"
      },
      {
        "county": "Kent",
        "title": "A20 eastbound access from M20/A259/A2034 | Eastbound | RoadOrCarriagewayOrLaneManagement",
        "region": "South East",
        "road": "A20",
        "latitude": "51.09581",
        "longitude": "1.1568221"
      },
      {
        "county": "Kent",
        "title": "A20 eastbound between M20/A259/A2034 and A260 | Eastbound | RoadOrCarriagewayOrLaneManagement",
        "region": "South East",
        "road": "A20",
        "latitude": "51.09589",
        "longitude": "1.1598532"
      },
      {
        "county": "Leicestershire",
        "title": "A453 northbound between A6 and M1 J24/A50 | Northbound | Congestion",
        "region": "East Midlands",
        "road": "A453",
        "latitude": "52.84333",
        "longitude": "-1.2974861"
      },
      {
        "county": "Kent",
        "title": "A20 eastbound between A256 near Dover (east) and A2 | Eastbound | Congestion",
        "region": "South East",
        "road": "A20",
        "latitude": "51.12296",
        "longitude": "1.3124447"
      },
      {
        "county": "Middlesbrough",
        "title": "A19 northbound within the A1130 junction | Northbound | Congestion",
        "region": "North East",
        "road": "A19",
        "latitude": "54.532463",
        "longitude": "-1.2799722"
      },
      {
        "county": "Stockton-on-Tees",
        "title": "A19 northbound between A66 and A1046 | Northbound | Accident",
        "region": "North East",
        "road": "A19",
        "latitude": "54.566113",
        "longitude": "-1.2672633"
      },
      {
        "county": "Kent",
        "title": "M20 eastbound between J8 and J9 | Eastbound | RoadOrCarriagewayOrLaneManagement",
        "region": "South East",
        "road": "M20",
        "latitude": "51.260796",
        "longitude": "0.61932355"
      },
      {
        "county": "Trafford District",
        "title": "M60 J9 clockwise exit | Clockwise | Congestion",
        "region": "North West",
        "road": "M60",
        "latitude": "53.456715",
        "longitude": "-2.3390415"
      },
      {
        "county": "Kent",
        "title": "M20 J11 eastbound access | Eastbound | RoadOrCarriagewayOrLaneManagement",
        "region": "South East",
        "road": "M20",
        "latitude": "51.095604",
        "longitude": "1.0521513"
      },
      {
        "county": "Bedfordshire",
        "title": "A5 southbound within the A4012 junction | Southbound | Congestion",
        "region": "Eastern",
        "road": "A5",
        "latitude": "51.933907",
        "longitude": "-0.5907139"
      },
      {
        "county": "Buckinghamshire",
        "title": "M40 J4 northbound exit | Northbound | Congestion",
        "region": "Eastern",
        "road": "M40",
        "latitude": "51.612164",
        "longitude": "-0.7668885"
      },
      {
        "county": "Salford District",
        "title": "link road from M61 J1 to M60 J15 anti-clockwise | Southbound | Congestion",
        "region": "North West",
        "road": "M61",
        "latitude": "53.52335",
        "longitude": "-2.361401"
      }
    ],
    "Timestamp": "2022-04-02T16:00:39"
  },
  {
    "Results": [
      {
        "county": "Cambridgeshire",
        "title": "A1(M) J14 southbound exit | Southbound | Congestion",
        "region": "Eastern",
        "road": "A1(M)",
        "latitude": "52.37647",
        "longitude": "-0.25058818"
      },
      {
        "county": "Kent",
        "title": "A20 eastbound between B2011 and A256 near Dover (west) | Eastbound | Congestion",
        "region": "South East",
        "road": "A20",
        "latitude": "51.109055",
        "longitude": "1.2747864"
      },
      {
        "county": "Milton Keynes",
        "title": "M1 J14 northbound access | Northbound | RoadOrCarriagewayOrLaneManagement",
        "region": "Eastern",
        "road": "M1",
        "latitude": "52.058887",
        "longitude": "-0.7013574"
      },
      {
        "county": "Kent",
        "title": "M20 eastbound between J8 and J9 | Eastbound | RoadOrCarriagewayOrLaneManagement",
        "region": "South East",
        "road": "M20",
        "latitude": "51.260796",
        "longitude": "0.61932355"
      },
      {
        "county": "Swindon",
        "title": "M4 westbound between J15 and J16 | Westbound | Accident",
        "region": "South West",
        "road": "M4",
        "latitude": "51.527737",
        "longitude": "-1.7326902"
      },
      {
        "county": "Wiltshire",
        "title": "M4 J16 eastbound access | Eastbound | Accident",
        "region": "South West",
        "road": "M4",
        "latitude": "51.54479",
        "longitude": "-1.8507324"
      },
      {
        "county": "Swindon",
        "title": "M4 J15 westbound access | Westbound | Accident",
        "region": "South West",
        "road": "M4",
        "latitude": "51.526787",
        "longitude": "-1.7276497"
      },
      {
        "county": "Swindon",
        "title": "M4 eastbound between J16 and J15 | Eastbound | Accident",
        "region": "South West",
        "road": "M4",
        "latitude": "51.54373",
        "longitude": "-1.8471268"
      }
    ],
    "Timestamp": "2022-04-02T03:00:38"
  },
  {
    "Results": [
      {
        "county": "Suffolk",
        "title": "A12 northbound between B1070 and A14 | Northbound | Congestion",
        "region": "Eastern",
        "road": "A12",
        "latitude": "51.995667",
        "longitude": "1.0402142"
      },
      {
        "county": "City of Kingston upon Hull",
        "title": "A63 westbound within the A1165 junction | Westbound | Congestion",
        "region": "North East",
        "road": "A63",
        "latitude": "53.744026",
        "longitude": "-0.32190737"
      },
      {
        "county": "Wiltshire",
        "title": "A36 southbound between A30 (east) and A338 | Southbound | Congestion",
        "region": "South West",
        "road": "A36",
        "latitude": "51.067978",
        "longitude": "-1.7896606"
      },
      {
        "county": "Northamptonshire",
        "title": "M1 southbound within J15A | Southbound | Broken down vehicle",
        "region": "East Midlands",
        "road": "M1",
        "latitude": "52.210815",
        "longitude": "-0.94853437"
      },
      {
        "county": "Sefton District",
        "title": "connector at M57 J7/M58/A5036/A59 | Westbound | Congestion",
        "region": "North West",
        "road": "A59",
        "latitude": "53.492683",
        "longitude": "-2.9514055"
      },
      {
        "county": "Sefton District",
        "title": "connector at M57 J7/M58/A5036 northbound | Northbound | Congestion",
        "region": "North West",
        "road": "M57",
        "latitude": "53.492496",
        "longitude": "-2.9509459"
      },
      {
        "county": "Windsor and Maidenhead",
        "title": "M4 J8 eastbound exit | Eastbound | Congestion",
        "region": "Eastern",
        "road": "M4",
        "latitude": "51.498554",
        "longitude": "-0.72709686"
      },
      {
        "county": "Kent",
        "title": "A20 eastbound access from M20/A259/A2034 | Eastbound | RoadOrCarriagewayOrLaneManagement",
        "region": "South East",
        "road": "A20",
        "latitude": "51.09581",
        "longitude": "1.1568221"
      },
      {
        "county": "Northamptonshire",
        "title": "A45 eastbound exit for A5076 near Northampton (east) | Eastbound | Congestion",
        "region": "East Midlands",
        "road": "A45",
        "latitude": "52.25032",
        "longitude": "-0.81108004"
      },
      {
        "county": "Kent",
        "title": "A20 eastbound between M20/A259/A2034 and A260 | Eastbound | RoadOrCarriagewayOrLaneManagement",
        "region": "South East",
        "road": "A20",
        "latitude": "51.09589",
        "longitude": "1.1598532"
      },
      {
        "county": "Hampshire",
        "title": "M27 J7 westbound access | Westbound | Broken down vehicle",
        "region": "South East",
        "road": "M27",
        "latitude": "50.91863",
        "longitude": "-1.3172246"
      },
      {
        "county": "Buckinghamshire",
        "title": "A404 northbound within M40 junction | Northbound | Congestion",
        "region": "Eastern",
        "road": "A404",
        "latitude": "51.583855",
        "longitude": "-0.7574225"
      },
      {
        "county": "Kent",
        "title": "A20 eastbound between A256 near Dover (east) and A2 | Eastbound | Congestion",
        "region": "South East",
        "road": "A20",
        "latitude": "51.103886",
        "longitude": "1.2461857"
      },
      {
        "county": "Stockport District",
        "title": "M60 clockwise between J2 and J3 | Clockwise | Congestion",
        "region": "North West",
        "road": "M60",
        "latitude": "53.408546",
        "longitude": "-2.178594"
      },
      {
        "county": "City of Stoke-on-Trent",
        "title": "link road from A500 northbound/A5006 to A50 | Northbound | Congestion",
        "region": "West Midlands",
        "road": "A500",
        "latitude": "52.99015",
        "longitude": "-2.1841311"
      },
      {
        "county": "Leeds District",
        "title": "M1 southbound within J42 | Southbound | AuthorityOperation",
        "region": "North East",
        "road": "M1",
        "latitude": "53.740265",
        "longitude": "-1.5132638"
      },
      {
        "county": "Thurrock",
        "title": "M25 clockwise within J30 | Clockwise | Congestion",
        "region": "Eastern",
        "road": "M25",
        "latitude": "51.49616",
        "longitude": "0.26892665"
      },
      {
        "county": "Leeds District",
        "title": "M1 northbound between J41 and J42 | Northbound | AuthorityOperation",
        "region": "North East",
        "road": "M1",
        "latitude": "53.71837",
        "longitude": "-1.5300379"
      },
      {
        "county": "Leeds District",
        "title": "M1 southbound between J44 and J43 | Southbound | Congestion",
        "region": "North East",
        "road": "M1",
        "latitude": "53.759693",
        "longitude": "-1.508231"
      },
      {
        "county": "Stockport District",
        "title": "M60 clockwise within J3 | Clockwise | Accident",
        "region": "North West",
        "road": "M60",
        "latitude": "53.399235",
        "longitude": "-2.222547"
      },
      {
        "county": "Kent",
        "title": "M20 eastbound between J8 and J9 | Eastbound | RoadOrCarriagewayOrLaneManagement",
        "region": "South East",
        "road": "M20",
        "latitude": "51.260796",
        "longitude": "0.61932355"
      },
      {
        "county": "Sefton District",
        "title": "A5036 northbound between A5207 and M57/M58 | Northbound | Congestion",
        "region": "North West",
        "road": "A5036",
        "latitude": "53.4901",
        "longitude": "-2.9557533"
      },
      {
        "county": "City of Bristol",
        "title": "M32 southbound within J3 | Southbound | Congestion",
        "region": "South West",
        "road": "M32",
        "latitude": "51.466904",
        "longitude": "-2.573324"
      },
      {
        "county": "Tameside District",
        "title": "M60 J23 anti-clockwise access from A635 eastbound | Anti-Clockwise | Congestion",
        "region": "North West",
        "road": "M60",
        "latitude": "53.481567",
        "longitude": "-2.1180995"
      },
      {
        "county": "Kent",
        "title": "M20 J11 eastbound access | Eastbound | RoadOrCarriagewayOrLaneManagement",
        "region": "South East",
        "road": "M20",
        "latitude": "51.095604",
        "longitude": "1.0521513"
      },
      {
        "county": "Buckinghamshire",
        "title": "M40 J4 northbound exit | Northbound | Congestion",
        "region": "Eastern",
        "road": "M40",
        "latitude": "51.612164",
        "longitude": "-0.7668885"
      }
    ],
    "Timestamp": "2022-04-02T14:00:39"
  },
  {
    "Results": [
      {
        "county": "Oldham District",
        "title": "M60 J21 anti-clockwise exit | Anti-Clockwise | Vehicle Fire",
        "region": "North West",
        "road": "M60",
        "latitude": "53.522705",
        "longitude": "-2.153212"
      },
      {
        "county": "Sefton District",
        "title": "connector at M57 J7/M58/A5036 northbound | Northbound | Congestion",
        "region": "North West",
        "road": "M57",
        "latitude": "53.492496",
        "longitude": "-2.9509459"
      },
      {
        "county": "Kent",
        "title": "A20 eastbound between A256 near Dover (east) and A2 | Eastbound | Congestion",
        "region": "South East",
        "road": "A20",
        "latitude": "51.103886",
        "longitude": "1.2461857"
      },
      {
        "county": "Kent",
        "title": "M20 eastbound between J8 and J9 | Eastbound | RoadOrCarriagewayOrLaneManagement",
        "region": "South East",
        "road": "M20",
        "latitude": "51.260796",
        "longitude": "0.61932355"
      },
      {
        "county": "Kent",
        "title": "M20 J11 eastbound access | Eastbound | RoadOrCarriagewayOrLaneManagement",
        "region": "South East",
        "road": "M20",
        "latitude": "51.095604",
        "longitude": "1.0521513"
      },
      {
        "county": "Sheffield District",
        "title": "M1 southbound between J35 and J34 | Southbound | Broken down vehicle",
        "region": "North East",
        "road": "M1",
        "latitude": "53.43067",
        "longitude": "-1.420038"
      }
    ],
    "Timestamp": "2022-04-02T21:52:49"
  },
  {
    "Results": [
      {
        "county": "Kent",
        "title": "M2 J7 eastbound exit | Eastbound | Congestion",
        "region": "South East",
        "road": "M2",
        "latitude": "51.300053",
        "longitude": "0.9231624"
      },
      {
        "county": "Gloucestershire",
        "title": "A40 eastbound between A48 and A417 near Gloucester (west) | Eastbound | Congestion",
        "region": "South West",
        "road": "A40",
        "latitude": "51.87262",
        "longitude": "-2.2894607"
      },
      {
        "county": "Kent",
        "title": "A20 eastbound between A256 near Dover (east) and A2 | Eastbound | Congestion",
        "region": "South East",
        "road": "A20",
        "latitude": "51.12296",
        "longitude": "1.3124447"
      },
      {
        "county": "Kent",
        "title": "M20 J11 eastbound access | Eastbound | RoadOrCarriagewayOrLaneManagement",
        "region": "South East",
        "road": "M20",
        "latitude": "51.095604",
        "longitude": "1.0521513"
      },
      {
        "county": "Buckinghamshire",
        "title": "M40 J4 northbound exit | Northbound | Congestion",
        "region": "Eastern",
        "road": "M40",
        "latitude": "51.612164",
        "longitude": "-0.7668885"
      }
    ],
    "Timestamp": "2022-04-03T09:00:38"
  },
  {
    "Results": [
      {
        "county": "Hertfordshire",
        "title": "M25 clockwise within J20 | Clockwise | Congestion",
        "region": "Eastern",
        "road": "M25",
        "latitude": "51.699352",
        "longitude": "-0.44459647"
      },
      {
        "county": "Lancashire",
        "title": "M65 J7 westbound exit | Westbound | Accident",
        "region": "North West",
        "road": "M65",
        "latitude": "53.766335",
        "longitude": "-2.3889391"
      },
      {
        "county": "Kent",
        "title": "A20 eastbound within the B2011 junction | Eastbound | Congestion",
        "region": "South East",
        "road": "A20",
        "latitude": "51.10452",
        "longitude": "1.2396847"
      },
      {
        "county": "West Sussex",
        "title": "A23 southbound within the A273 junction | Southbound | AuthorityOperation",
        "region": "South East",
        "road": "A23",
        "latitude": "50.96441",
        "longitude": "-0.1935964"
      },
      {
        "county": "Milton Keynes",
        "title": "M1 J14 northbound access | Northbound | RoadOrCarriagewayOrLaneManagement",
        "region": "Eastern",
        "road": "M1",
        "latitude": "52.058887",
        "longitude": "-0.7013574"
      },
      {
        "county": "Leicestershire",
        "title": "A453 northbound between A6 and M1 J24/A50 | Northbound | Congestion",
        "region": "East Midlands",
        "road": "A453",
        "latitude": "52.84333",
        "longitude": "-1.2974861"
      },
      {
        "county": "Northamptonshire",
        "title": "A5 northbound between A422/A508 and A43 | Northbound | Congestion",
        "region": "East Midlands",
        "road": "A5",
        "latitude": "52.124615",
        "longitude": "-0.9771369"
      },
      {
        "county": "Coventry District",
        "title": "A45 westbound between A423 and A46 near Coventry (east) | Westbound | Congestion",
        "region": "West Midlands",
        "road": "A45",
        "latitude": "52.377033",
        "longitude": "-1.463961"
      },
      {
        "county": "Kent",
        "title": "M20 eastbound between J8 and J9 | Eastbound | RoadOrCarriagewayOrLaneManagement",
        "region": "South East",
        "road": "M20",
        "latitude": "51.260796",
        "longitude": "0.61932355"
      },
      {
        "county": "Greater London Authority",
        "title": "M25 clockwise between J25 and J26 | Clockwise | Accident",
        "region": "Eastern",
        "road": "M25",
        "latitude": "51.682507",
        "longitude": "-0.035925783"
      }
    ],
    "Timestamp": "2022-04-01T23:59:03"
  },
  {
    "Results": [
      {
        "county": "Milton Keynes",
        "title": "M1 J14 northbound access | Northbound | RoadOrCarriagewayOrLaneManagement",
        "region": "Eastern",
        "road": "M1",
        "latitude": "52.058887",
        "longitude": "-0.7013574"
      },
      {
        "county": "Kent",
        "title": "M20 eastbound between J8 and J9 | Eastbound | RoadOrCarriagewayOrLaneManagement",
        "region": "South East",
        "road": "M20",
        "latitude": "51.260796",
        "longitude": "0.61932355"
      },
      {
        "county": "Swindon",
        "title": "M4 westbound between J15 and J16 | Westbound | Accident",
        "region": "South West",
        "road": "M4",
        "latitude": "51.527737",
        "longitude": "-1.7326902"
      },
      {
        "county": "Swindon",
        "title": "M4 J15 westbound access | Westbound | Accident",
        "region": "South West",
        "road": "M4",
        "latitude": "51.526787",
        "longitude": "-1.7276497"
      },
      {
        "county": "Swindon",
        "title": "M4 eastbound between J16 and J15 | Eastbound | Accident",
        "region": "South West",
        "road": "M4",
        "latitude": "51.540493",
        "longitude": "-1.8046329"
      }
    ],
    "Timestamp": "2022-04-02T04:00:38"
  },
  {
    "Results": [
      {
        "county": "Surrey",
        "title": "M25 anti-clockwise between J6 and J5 | Anti-Clockwise | Broken down vehicle",
        "region": "South East",
        "road": "M25",
        "latitude": "51.270435",
        "longitude": "0.028090071"
      },
      {
        "county": "Rochdale District",
        "title": "M60 clockwise between J20 and J21 | Clockwise | AuthorityOperation",
        "region": "North West",
        "road": "M60",
        "latitude": "53.52769",
        "longitude": "-2.1776366"
      },
      {
        "county": "Staffordshire",
        "title": "A5 northbound between M6 Toll and A4601 | Northbound | Accident",
        "region": "West Midlands",
        "road": "A5",
        "latitude": "52.674004",
        "longitude": "-2.028929"
      },
      {
        "county": "Kent",
        "title": "M20 eastbound between J8 and J9 | Eastbound | RoadOrCarriagewayOrLaneManagement",
        "region": "South East",
        "road": "M20",
        "latitude": "51.260796",
        "longitude": "0.61932355"
      },
      {
        "county": "Kent",
        "title": "M20 J11 eastbound access | Eastbound | RoadOrCarriagewayOrLaneManagement",
        "region": "South East",
        "road": "M20",
        "latitude": "51.095604",
        "longitude": "1.0521513"
      }
    ],
    "Timestamp": "2022-04-02T23:00:38"
  },
  {
    "Results": [
      {
        "county": "Surrey",
        "title": "M25 anti-clockwise between J6 and J5 | Anti-Clockwise | Accident",
        "region": "South East",
        "road": "M25",
        "latitude": "51.264763",
        "longitude": "-0.02758538"
      },
      {
        "county": "Staffordshire",
        "title": "A5 northbound between M6 Toll and A4601 | Northbound | Accident",
        "region": "West Midlands",
        "road": "A5",
        "latitude": "52.674004",
        "longitude": "-2.028929"
      },
      {
        "county": "Kent",
        "title": "A20 eastbound between A256 near Dover (east) and A2 | Eastbound | Congestion",
        "region": "South East",
        "road": "A20",
        "latitude": "51.12296",
        "longitude": "1.3124447"
      },
      {
        "county": "Kent",
        "title": "M20 eastbound between J8 and J9 | Eastbound | RoadOrCarriagewayOrLaneManagement",
        "region": "South East",
        "road": "M20",
        "latitude": "51.260796",
        "longitude": "0.61932355"
      },
      {
        "county": "Kent",
        "title": "M20 J11 eastbound access | Eastbound | RoadOrCarriagewayOrLaneManagement",
        "region": "South East",
        "road": "M20",
        "latitude": "51.095604",
        "longitude": "1.0521513"
      }
    ],
    "Timestamp": "2022-04-03T01:00:38"
  },
  {
    "Results": [
      {
        "county": "Derbyshire",
        "title": "A38 southbound access from A50 | Southbound | Accident",
        "region": "East Midlands",
        "road": "A38",
        "latitude": "52.864788",
        "longitude": "-1.5684752"
      },
      {
        "county": "Surrey",
        "title": "M25 clockwise between J5 and J6 | Clockwise | Broken down vehicle",
        "region": "South East",
        "road": "M25",
        "latitude": "51.268806",
        "longitude": "-0.0026905362"
      },
      {
        "county": "Kent",
        "title": "M20 J11 eastbound access | Eastbound | RoadOrCarriagewayOrLaneManagement",
        "region": "South East",
        "road": "M20",
        "latitude": "51.095604",
        "longitude": "1.0521513"
      },
      {
        "county": "Hertfordshire",
        "title": "A414 westbound between M1 J8 and A4147 | Westbound | Congestion",
        "region": "Eastern",
        "road": "A414",
        "latitude": "51.75629",
        "longitude": "-0.42189884"
      },
      {
        "county": "North Somerset",
        "title": "M5 J21 northbound access | Northbound | Vehicle Obstruction",
        "region": "South West",
        "road": "M5",
        "latitude": "51.35948",
        "longitude": "-2.8941102"
      }
    ],
    "Timestamp": "2022-04-03T06:00:38"
  },
  {
    "Results": [
      {
        "county": "Swindon",
        "title": "A419 southbound between A361 and A420 | Southbound | Broken down vehicle",
        "region": "South West",
        "road": "A419",
        "latitude": "51.582855",
        "longitude": "-1.7390107"
      },
      {
        "county": "Oldham District",
        "title": "M60 J21 anti-clockwise exit | Anti-Clockwise | Vehicle Fire",
        "region": "North West",
        "road": "M60",
        "latitude": "53.522705",
        "longitude": "-2.153212"
      },
      {
        "county": "Sandwell District",
        "title": "M5 J2 southbound exit | Southbound | Congestion",
        "region": "West Midlands",
        "road": "M5",
        "latitude": "52.49406",
        "longitude": "-2.0172887"
      },
      {
        "county": "Kent",
        "title": "M20 eastbound between J8 and J9 | Eastbound | RoadOrCarriagewayOrLaneManagement",
        "region": "South East",
        "road": "M20",
        "latitude": "51.260796",
        "longitude": "0.61932355"
      },
      {
        "county": "Kent",
        "title": "M20 J11 eastbound access | Eastbound | RoadOrCarriagewayOrLaneManagement",
        "region": "South East",
        "road": "M20",
        "latitude": "51.095604",
        "longitude": "1.0521513"
      }
    ],
    "Timestamp": "2022-04-02T21:00:38"
  },
  {
    "Results": [
      {
        "county": "Kent",
        "title": "A20 eastbound between B2011 and A256 near Dover (west) | Eastbound | Congestion",
        "region": "South East",
        "road": "A20",
        "latitude": "51.109055",
        "longitude": "1.2747864"
      },
      {
        "county": "Kent",
        "title": "A20 eastbound access from M20/A259/A2034 | Eastbound | RoadOrCarriagewayOrLaneManagement",
        "region": "South East",
        "road": "A20",
        "latitude": "51.09581",
        "longitude": "1.1568221"
      },
      {
        "county": "Kent",
        "title": "A20 eastbound between M20/A259/A2034 and A260 | Eastbound | RoadOrCarriagewayOrLaneManagement",
        "region": "South East",
        "road": "A20",
        "latitude": "51.09589",
        "longitude": "1.1598532"
      },
      {
        "county": "Kent",
        "title": "M20 eastbound between J8 and J9 | Eastbound | RoadOrCarriagewayOrLaneManagement",
        "region": "South East",
        "road": "M20",
        "latitude": "51.260796",
        "longitude": "0.61932355"
      },
      {
        "county": "Sheffield District",
        "title": "M1 southbound between J34 and J33 | Southbound | Broken down vehicle",
        "region": "North East",
        "road": "M1",
        "latitude": "53.39752",
        "longitude": "-1.3699949"
      },
      {
        "county": "Kent",
        "title": "M20 J11 eastbound access | Eastbound | RoadOrCarriagewayOrLaneManagement",
        "region": "South East",
        "road": "M20",
        "latitude": "51.095604",
        "longitude": "1.0521513"
      },
      {
        "county": "Swindon",
        "title": "M4 westbound between J15 and J16 | Westbound | Accident",
        "region": "South West",
        "road": "M4",
        "latitude": "51.527737",
        "longitude": "-1.7326902"
      },
      {
        "county": "Swindon",
        "title": "M4 J15 westbound access | Westbound | Accident",
        "region": "South West",
        "road": "M4",
        "latitude": "51.526787",
        "longitude": "-1.7276497"
      },
      {
        "county": "Swindon",
        "title": "M4 eastbound between J16 and J15 | Eastbound | Accident",
        "region": "South West",
        "road": "M4",
        "latitude": "51.540493",
        "longitude": "-1.8046329"
      }
    ],
    "Timestamp": "2022-04-02T05:00:38"
  },
  {
    "Results": [
      {
        "county": "Surrey",
        "title": "M25 clockwise between J5 and J6 | Clockwise | Broken down vehicle",
        "region": "South East",
        "road": "M25",
        "latitude": "51.28488",
        "longitude": "0.10901238"
      },
      {
        "county": "Hampshire",
        "title": "M27 J7 westbound exit | Westbound | Congestion",
        "region": "South East",
        "road": "M27",
        "latitude": "50.915405",
        "longitude": "-1.318969"
      },
      {
        "county": "Northamptonshire",
        "title": "A45 eastbound within the M1 junction | Eastbound | Congestion",
        "region": "East Midlands",
        "road": "A45",
        "latitude": "52.18598",
        "longitude": "-0.8956605"
      },
      {
        "county": "Kent",
        "title": "A20 eastbound access from M20/A259/A2034 | Eastbound | RoadOrCarriagewayOrLaneManagement",
        "region": "South East",
        "road": "A20",
        "latitude": "51.09581",
        "longitude": "1.1568221"
      },
      {
        "county": "Northamptonshire",
        "title": "A45 westbound exit for A428/A5095 | Westbound | Congestion",
        "region": "East Midlands",
        "road": "A45",
        "latitude": "52.23178",
        "longitude": "-0.86508983"
      },
      {
        "county": "Kent",
        "title": "A20 eastbound between M20/A259/A2034 and A260 | Eastbound | RoadOrCarriagewayOrLaneManagement",
        "region": "South East",
        "road": "A20",
        "latitude": "51.09589",
        "longitude": "1.1598532"
      },
      {
        "county": "Kent",
        "title": "A20 eastbound access from A260 | Eastbound | Congestion",
        "region": "South East",
        "road": "A20",
        "latitude": "51.106686",
        "longitude": "1.1733153"
      },
      {
        "county": "Warwickshire",
        "title": "A46 northbound within the A4177 junction | Northbound | Congestion",
        "region": "West Midlands",
        "road": "A46",
        "latitude": "52.261673",
        "longitude": "-1.6131063"
      },
      {
        "county": "Warwickshire",
        "title": "A46 northbound within the A4177 junction | Northbound | Congestion",
        "region": "West Midlands",
        "road": "A46",
        "latitude": "52.259365",
        "longitude": "-1.6197633"
      },
      {
        "county": "City of Southampton",
        "title": "M27 westbound between J5 and J4 | Westbound | Broken down vehicle",
        "region": "South East",
        "road": "M27",
        "latitude": "50.94809",
        "longitude": "-1.385623"
      },
      {
        "county": "Cheshire West and Chester",
        "title": "A494 westbound exit for A548 | Westbound | Congestion",
        "region": "North West",
        "road": "A494",
        "latitude": "53.234142",
        "longitude": "-2.9885516"
      },
      {
        "county": "Kent",
        "title": "M20 eastbound between J8 and J9 | Eastbound | RoadOrCarriagewayOrLaneManagement",
        "region": "South East",
        "road": "M20",
        "latitude": "51.260796",
        "longitude": "0.61932355"
      },
      {
        "county": "Kent",
        "title": "M20 J11 eastbound access | Eastbound | RoadOrCarriagewayOrLaneManagement",
        "region": "South East",
        "road": "M20",
        "latitude": "51.095604",
        "longitude": "1.0521513"
      },
      {
        "county": "Swindon",
        "title": "M4 westbound between J15 and J16 | Westbound | Accident",
        "region": "South West",
        "road": "M4",
        "latitude": "51.527737",
        "longitude": "-1.7326902"
      },
      {
        "county": "Swindon",
        "title": "M4 J15 westbound access | Westbound | Accident",
        "region": "South West",
        "road": "M4",
        "latitude": "51.526787",
        "longitude": "-1.7276497"
      },
      {
        "county": "Swindon",
        "title": "M4 eastbound between J16 and J15 | Eastbound | Accident",
        "region": "South West",
        "road": "M4",
        "latitude": "51.540493",
        "longitude": "-1.8046329"
      }
    ],
    "Timestamp": "2022-04-02T08:00:38"
  },
  {
    "Results": [
      {
        "county": "Hertfordshire",
        "title": "M25 anti-clockwise between J25 and J24 | Anti-Clockwise | Broken down vehicle",
        "region": "Eastern",
        "road": "M25",
        "latitude": "51.683723",
        "longitude": "-0.06724613"
      },
      {
        "county": "Leicestershire",
        "title": "M1 J23 northbound exit | Northbound | Congestion",
        "region": "East Midlands",
        "road": "M1",
        "latitude": "52.758316",
        "longitude": "-1.2743988"
      },
      {
        "county": "Oldham District",
        "title": "M60 J21 anti-clockwise exit | Anti-Clockwise | Vehicle Fire",
        "region": "North West",
        "road": "M60",
        "latitude": "53.522705",
        "longitude": "-2.153212"
      },
      {
        "county": "Kent",
        "title": "A20 eastbound between B2011 and A256 near Dover (west) | Eastbound | Congestion",
        "region": "South East",
        "road": "A20",
        "latitude": "51.103886",
        "longitude": "1.2461857"
      },
      {
        "county": "Hertfordshire",
        "title": "M1 J5 southbound exit | Southbound | Congestion",
        "region": "Eastern",
        "road": "M1",
        "latitude": "51.673557",
        "longitude": "-0.37094444"
      },
      {
        "county": "Kent",
        "title": "M20 eastbound between J8 and J9 | Eastbound | RoadOrCarriagewayOrLaneManagement",
        "region": "South East",
        "road": "M20",
        "latitude": "51.260796",
        "longitude": "0.61932355"
      },
      {
        "county": "Kent",
        "title": "M20 J11 eastbound access | Eastbound | RoadOrCarriagewayOrLaneManagement",
        "region": "South East",
        "road": "M20",
        "latitude": "51.095604",
        "longitude": "1.0521513"
      },
      {
        "county": "Sheffield District",
        "title": "M1 southbound between J35 and J34 | Southbound | Broken down vehicle",
        "region": "North East",
        "road": "M1",
        "latitude": "53.43067",
        "longitude": "-1.420038"
      }
    ],
    "Timestamp": "2022-04-02T22:03:59"
  },
  {
    "Results": [
      {
        "county": "Kent",
        "title": "M2 J7 eastbound exit | Eastbound | Congestion",
        "region": "South East",
        "road": "M2",
        "latitude": "51.300053",
        "longitude": "0.9231624"
      },
      {
        "county": "Salford District",
        "title": "link road from M602 J1 westbound to M60 J12 clockwise | Clockwise | Congestion",
        "region": "North West",
        "road": "M60",
        "latitude": "53.485764",
        "longitude": "-2.377031"
      },
      {
        "county": "Kent",
        "title": "A282 northbound within the A206 junction | Anti-Clockwise | Congestion",
        "region": "South East",
        "road": "M25",
        "latitude": "51.453796",
        "longitude": "0.24315593"
      },
      {
        "county": "Devon",
        "title": "M5 J28 southbound exit | Southbound | Congestion",
        "region": "South West",
        "road": "M5",
        "latitude": "50.862602",
        "longitude": "-3.383057"
      },
      {
        "county": "Liverpool District",
        "title": "M62 westbound within J5 | Westbound | Accident",
        "region": "North West",
        "road": "M62",
        "latitude": "53.40588",
        "longitude": "-2.8633738"
      },
      {
        "county": "Bedford",
        "title": "A421 northbound between A4280 and A1 | Northbound | Congestion",
        "region": "Eastern",
        "road": "A421",
        "latitude": "52.168976",
        "longitude": "-0.34355742"
      },
      {
        "county": "Wakefield District",
        "title": "A1 southbound between B6474 and A639 | Southbound | Congestion",
        "region": "North East",
        "road": "A1",
        "latitude": "53.644577",
        "longitude": "-1.2555447"
      },
      {
        "county": "Kent",
        "title": "A20 eastbound between B2011 and A256 near Dover (west) | Eastbound | Congestion",
        "region": "South East",
        "road": "A20",
        "latitude": "51.109055",
        "longitude": "1.2747864"
      },
      {
        "county": "County of Herefordshire",
        "title": "A49 northbound between A438 near Hereford (north) and B4224 | Northbound | Congestion",
        "region": "West Midlands",
        "road": "A49",
        "latitude": "52.05801",
        "longitude": "-2.7199893"
      },
      {
        "county": "Wiltshire",
        "title": "A36 northbound between A27 and A338 | Northbound | Congestion",
        "region": "South West",
        "road": "A36",
        "latitude": "51.06161",
        "longitude": "-1.7685578"
      },
      {
        "county": "Tameside District",
        "title": "M60 J23 clockwise exit for A635 westbound | Clockwise | Congestion",
        "region": "North West",
        "road": "M60",
        "latitude": "53.482475",
        "longitude": "-2.1151965"
      },
      {
        "county": "Kent",
        "title": "M20 J11 eastbound access | Eastbound | RoadOrCarriagewayOrLaneManagement",
        "region": "South East",
        "road": "M20",
        "latitude": "51.095604",
        "longitude": "1.0521513"
      },
      {
        "county": "West Sussex",
        "title": "A27 eastbound between B2145 and A259 near Chichester (east) | Eastbound | Congestion",
        "region": "South East",
        "road": "A27",
        "latitude": "50.826385",
        "longitude": "-0.75983554"
      },
      {
        "county": "Norfolk",
        "title": "A47 eastbound between B198 near Wisbech (west) and A1101 | Eastbound | Congestion",
        "region": "Eastern",
        "road": "A47",
        "latitude": "52.64566",
        "longitude": "0.1555738"
      }
    ],
    "Timestamp": "2022-04-03T12:00:38"
  },
  {
    "Results": [
      {
        "county": "Hertfordshire",
        "title": "M25 clockwise within J20 | Clockwise | Congestion",
        "region": "Eastern",
        "road": "M25",
        "latitude": "51.699352",
        "longitude": "-0.44459647"
      },
      {
        "county": "Lancashire",
        "title": "M65 J7 westbound exit | Westbound | Accident",
        "region": "North West",
        "road": "M65",
        "latitude": "53.766335",
        "longitude": "-2.3889391"
      },
      {
        "county": "Kent",
        "title": "A20 eastbound within the B2011 junction | Eastbound | Congestion",
        "region": "South East",
        "road": "A20",
        "latitude": "51.10452",
        "longitude": "1.2396847"
      },
      {
        "county": "West Sussex",
        "title": "A23 southbound within the A273 junction | Southbound | AuthorityOperation",
        "region": "South East",
        "road": "A23",
        "latitude": "50.96441",
        "longitude": "-0.1935964"
      },
      {
        "county": "Milton Keynes",
        "title": "M1 J14 northbound access | Northbound | RoadOrCarriagewayOrLaneManagement",
        "region": "Eastern",
        "road": "M1",
        "latitude": "52.058887",
        "longitude": "-0.7013574"
      },
      {
        "county": "Leicestershire",
        "title": "A453 northbound between A6 and M1 J24/A50 | Northbound | Congestion",
        "region": "East Midlands",
        "road": "A453",
        "latitude": "52.84333",
        "longitude": "-1.2974861"
      },
      {
        "county": "Northamptonshire",
        "title": "A5 northbound between A422/A508 and A43 | Northbound | Congestion",
        "region": "East Midlands",
        "road": "A5",
        "latitude": "52.124615",
        "longitude": "-0.9771369"
      },
      {
        "county": "Coventry District",
        "title": "A45 westbound between A423 and A46 near Coventry (east) | Westbound | Congestion",
        "region": "West Midlands",
        "road": "A45",
        "latitude": "52.377033",
        "longitude": "-1.463961"
      },
      {
        "county": "Kent",
        "title": "M20 eastbound between J8 and J9 | Eastbound | RoadOrCarriagewayOrLaneManagement",
        "region": "South East",
        "road": "M20",
        "latitude": "51.260796",
        "longitude": "0.61932355"
      },
      {
        "county": "Greater London Authority",
        "title": "M25 clockwise between J25 and J26 | Clockwise | Accident",
        "region": "Eastern",
        "road": "M25",
        "latitude": "51.682507",
        "longitude": "-0.035925783"
      }
    ],
    "Timestamp": "2022-04-02T00:00:38"
  },
  {
    "Results": [
      {
        "county": "Kent",
        "title": "A20 eastbound between A256 near Dover (east) and A2 | Eastbound | Congestion",
        "region": "South East",
        "road": "A20",
        "latitude": "51.117626",
        "longitude": "1.3072753"
      },
      {
        "county": "Oxfordshire",
        "title": "A34 southbound exit for A420 | Southbound | Congestion",
        "region": "Eastern",
        "road": "A34",
        "latitude": "51.75753",
        "longitude": "-1.2956462"
      },
      {
        "county": "Surrey",
        "title": "M3 eastbound between J3 and J2 | Eastbound | Accident",
        "region": "South East",
        "road": "M3",
        "latitude": "51.389507",
        "longitude": "-0.5694979"
      },
      {
        "county": "North Somerset",
        "title": "M5 J21 northbound exit | Northbound | Congestion",
        "region": "South West",
        "road": "M5",
        "latitude": "51.356697",
        "longitude": "-2.8944244"
      },
      {
        "county": "Surrey",
        "title": "M3 westbound between J3 and J4 | Westbound | Broken down vehicle",
        "region": "South East",
        "road": "M3",
        "latitude": "51.32667",
        "longitude": "-0.7342845"
      },
      {
        "county": "Kent",
        "title": "M20 J11 eastbound access | Eastbound | RoadOrCarriagewayOrLaneManagement",
        "region": "South East",
        "road": "M20",
        "latitude": "51.095604",
        "longitude": "1.0521513"
      },
      {
        "county": "North Somerset",
        "title": "M5 J21 northbound access | Northbound | Vehicle Obstruction",
        "region": "South West",
        "road": "M5",
        "latitude": "51.35948",
        "longitude": "-2.8941102"
      }
    ],
    "Timestamp": "2022-04-03T07:00:38"
  },
  {
    "Results": [
      {
        "county": "Swindon",
        "title": "A419 southbound between A361 and A420 | Southbound | Broken down vehicle",
        "region": "South West",
        "road": "A419",
        "latitude": "51.582855",
        "longitude": "-1.7390107"
      },
      {
        "county": "Cumbria",
        "title": "A595 southbound between B5295 near Homewood and A5086 | Southbound | Accident",
        "region": "North West",
        "road": "A595",
        "latitude": "54.529743",
        "longitude": "-3.568734"
      },
      {
        "county": "Cumbria",
        "title": "A595 northbound between A5086 and B5295 near Homewood | Northbound | Accident",
        "region": "North West",
        "road": "A595",
        "latitude": "54.49033",
        "longitude": "-3.5345745"
      },
      {
        "county": "Surrey",
        "title": "A30 westbound between A308 and M25 | Westbound | Congestion",
        "region": "South East",
        "road": "A30",
        "latitude": "51.43671",
        "longitude": "-0.49919838"
      },
      {
        "county": "Luton",
        "title": "M1 J11 southbound exit | Southbound | Congestion",
        "region": "Eastern",
        "road": "M1",
        "latitude": "51.894814",
        "longitude": "-0.4696459"
      },
      {
        "county": "Kent",
        "title": "A20 eastbound between B2011 and A256 near Dover (west) | Eastbound | Congestion",
        "region": "South East",
        "road": "A20",
        "latitude": "51.109055",
        "longitude": "1.2747864"
      },
      {
        "county": "Rochdale District",
        "title": "M62 eastbound within J19 | Eastbound | Broken down vehicle",
        "region": "North West",
        "road": "M62",
        "latitude": "53.57498",
        "longitude": "-2.2099397"
      },
      {
        "county": "County of Herefordshire",
        "title": "A49 northbound between A438 near Hereford (south) and A438 near Hereford (north) | Northbound | Congestion",
        "region": "West Midlands",
        "road": "A49",
        "latitude": "52.057262",
        "longitude": "-2.7203546"
      },
      {
        "county": "East Sussex",
        "title": "A259 westbound between A2036 and A269 near Bexhill (east) | Westbound | Congestion",
        "region": "South East",
        "road": "A259",
        "latitude": "50.84542",
        "longitude": "0.49368358"
      },
      {
        "county": "Kent",
        "title": "M20 eastbound between J8 and J9 | Eastbound | RoadOrCarriagewayOrLaneManagement",
        "region": "South East",
        "road": "M20",
        "latitude": "51.260796",
        "longitude": "0.61932355"
      },
      {
        "county": "Kent",
        "title": "M20 J11 eastbound access | Eastbound | RoadOrCarriagewayOrLaneManagement",
        "region": "South East",
        "road": "M20",
        "latitude": "51.095604",
        "longitude": "1.0521513"
      }
    ],
    "Timestamp": "2022-04-02T20:00:38"
  },
  {
    "Results": [
      {
        "county": "Leicestershire",
        "title": "M1 J23 northbound exit | Northbound | Congestion",
        "region": "East Midlands",
        "road": "M1",
        "latitude": "52.758316",
        "longitude": "-1.2743988"
      },
      {
        "county": "Kent",
        "title": "M2 J7 eastbound exit | Eastbound | Congestion",
        "region": "South East",
        "road": "M2",
        "latitude": "51.300053",
        "longitude": "0.9231624"
      },
      {
        "county": "West Sussex",
        "title": "M23 J11 northbound access | Northbound | Accident",
        "region": "South East",
        "road": "M23",
        "latitude": "51.087845",
        "longitude": "-0.19429809"
      },
      {
        "county": "Kent",
        "title": "A282 northbound within the A206 junction | Anti-Clockwise | Congestion",
        "region": "South East",
        "road": "M25",
        "latitude": "51.453796",
        "longitude": "0.24315593"
      },
      {
        "county": "Liverpool District",
        "title": "M62 westbound within J5 | Westbound | Accident",
        "region": "North West",
        "road": "M62",
        "latitude": "53.40588",
        "longitude": "-2.8633738"
      },
      {
        "county": "Surrey",
        "title": "A3 southbound access from A322 | Southbound | Congestion",
        "region": "South East",
        "road": "A3",
        "latitude": "51.24749",
        "longitude": "-0.59074694"
      },
      {
        "county": "Surrey",
        "title": "A3 southbound between A320 and A322 | Southbound | Congestion",
        "region": "South East",
        "road": "A3",
        "latitude": "51.249027",
        "longitude": "-0.5686053"
      },
      {
        "county": "Wiltshire",
        "title": "A36 southbound between A30 (east) and A338 | Southbound | Congestion",
        "region": "South West",
        "road": "A36",
        "latitude": "51.067978",
        "longitude": "-1.7896606"
      },
      {
        "county": "Wokingham",
        "title": "M4 westbound between J10 and J11 | Westbound | Broken down vehicle",
        "region": "Eastern",
        "road": "M4",
        "latitude": "51.412163",
        "longitude": "-0.95850545"
      },
      {
        "county": "Kent",
        "title": "A20 westbound between A256 near Dover (west) and B2011 | Westbound | Congestion",
        "region": "South East",
        "road": "A20",
        "latitude": "51.125084",
        "longitude": "1.3183576"
      },
      {
        "county": "Kent",
        "title": "A20 eastbound between A256 near Dover (east) and A2 | Eastbound | Congestion",
        "region": "South East",
        "road": "A20",
        "latitude": "51.103886",
        "longitude": "1.2461857"
      },
      {
        "county": "Middlesbrough",
        "title": "A19 northbound within the A1130 junction | Northbound | Congestion",
        "region": "North East",
        "road": "A19",
        "latitude": "54.54897",
        "longitude": "-1.274665"
      },
      {
        "county": "City of Bristol",
        "title": "M32 southbound within J3 | Southbound | Congestion",
        "region": "South West",
        "road": "M32",
        "latitude": "51.466904",
        "longitude": "-2.573324"
      },
      {
        "county": "Kent",
        "title": "M20 J11 eastbound access | Eastbound | RoadOrCarriagewayOrLaneManagement",
        "region": "South East",
        "road": "M20",
        "latitude": "51.095604",
        "longitude": "1.0521513"
      }
    ],
    "Timestamp": "2022-04-03T11:00:39"
  },
  {
    "Results": [
      {
        "county": "Gloucestershire",
        "title": "A417 southbound between A46 and A436 | Southbound | Congestion",
        "region": "South West",
        "road": "A417",
        "latitude": "51.84783",
        "longitude": "-2.1353528"
      },
      {
        "county": "Kent",
        "title": "M2 J7 eastbound exit | Eastbound | Congestion",
        "region": "South East",
        "road": "M2",
        "latitude": "51.300053",
        "longitude": "0.9231624"
      },
      {
        "county": "Bedfordshire",
        "title": "A5 southbound within the A5183 junction (to roundabout) | Southbound | Congestion",
        "region": "Eastern",
        "road": "A5",
        "latitude": "51.910275",
        "longitude": "-0.5554946"
      },
      {
        "county": "Kent",
        "title": "A282 northbound within the A206 junction | Anti-Clockwise | Congestion",
        "region": "South East",
        "road": "M25",
        "latitude": "51.453796",
        "longitude": "0.24315593"
      },
      {
        "county": "Leeds District",
        "title": "M621 eastbound between J2A and J3 | Eastbound | Overturned Vehicle",
        "region": "North East",
        "road": "M621",
        "latitude": "53.78365",
        "longitude": "-1.5547003"
      },
      {
        "county": "Leeds District",
        "title": "M621 eastbound between J2 and J2A | Eastbound | Congestion",
        "region": "North East",
        "road": "M621",
        "latitude": "53.779747",
        "longitude": "-1.5724312"
      },
      {
        "county": "Leeds District",
        "title": "M621 J2A eastbound access | Eastbound | Overturned Vehicle",
        "region": "North East",
        "road": "M621",
        "latitude": "53.783085",
        "longitude": "-1.5577202"
      },
      {
        "county": "Northamptonshire",
        "title": "A5 southbound between A43 and A422/A508 | Southbound | Accident",
        "region": "East Midlands",
        "road": "A5",
        "latitude": "52.079865",
        "longitude": "-0.89541346"
      },
      {
        "county": "City of Bristol",
        "title": "M5 northbound within J18A after M49 exit | Northbound | Congestion",
        "region": "South West",
        "road": "M5",
        "latitude": "51.497242",
        "longitude": "-2.6833854"
      },
      {
        "county": "Kent",
        "title": "A20 eastbound between B2011 and A256 near Dover (west) | Eastbound | Congestion",
        "region": "South East",
        "road": "A20",
        "latitude": "51.109055",
        "longitude": "1.2747864"
      },
      {
        "county": "Milton Keynes",
        "title": "M1 northbound between J13 and J14 | Northbound | Accident",
        "region": "Eastern",
        "road": "M1",
        "latitude": "52.053967",
        "longitude": "-0.68641645"
      },
      {
        "county": "County of Herefordshire",
        "title": "A49 northbound between A438 near Hereford (south) and A438 near Hereford (north) | Northbound | Congestion",
        "region": "West Midlands",
        "road": "A49",
        "latitude": "52.057262",
        "longitude": "-2.7203546"
      },
      {
        "county": "Wiltshire",
        "title": "A36 northbound between A27 and A338 | Northbound | Congestion",
        "region": "South West",
        "road": "A36",
        "latitude": "51.06161",
        "longitude": "-1.7685578"
      },
      {
        "county": "Oldham District",
        "title": "M60 J21 anti-clockwise access | Anti-Clockwise | Congestion",
        "region": "North West",
        "road": "M60",
        "latitude": "53.526737",
        "longitude": "-2.1608253"
      },
      {
        "county": "Stockton-on-Tees",
        "title": "A19 northbound between A1027 and A689 | Northbound | Broken down vehicle",
        "region": "North East",
        "road": "A19",
        "latitude": "54.5998",
        "longitude": "-1.3068929"
      },
      {
        "county": "Greater London Authority",
        "title": "M25 J28 anti-clockwise exit | Anti-Clockwise | Vehicle Fire",
        "region": "Eastern",
        "road": "M25",
        "latitude": "51.607075",
        "longitude": "0.2637233"
      },
      {
        "county": "South Gloucestershire",
        "title": "M4 eastbound between J22 and J21 | Eastbound | Congestion",
        "region": "South West",
        "road": "M4",
        "latitude": "51.57462",
        "longitude": "-2.6166542"
      },
      {
        "county": "South Gloucestershire",
        "title": "M4 eastbound between J22 and J21 | Eastbound | Vehicle Obstruction",
        "region": "South West",
        "road": "M4",
        "latitude": "51.57417",
        "longitude": "-2.6188734"
      },
      {
        "county": "Northamptonshire",
        "title": "A5 northbound between A422/A508 and A43 | Northbound | Accident",
        "region": "East Midlands",
        "road": "A5",
        "latitude": "52.07471",
        "longitude": "-0.8858193"
      },
      {
        "county": "Kent",
        "title": "M20 J11 eastbound access | Eastbound | RoadOrCarriagewayOrLaneManagement",
        "region": "South East",
        "road": "M20",
        "latitude": "51.095604",
        "longitude": "1.0521513"
      },
      {
        "county": "Cheshire West and Chester",
        "title": "M6 northbound between J18 and J19 | Northbound | Broken down vehicle",
        "region": "North West",
        "road": "M6",
        "latitude": "53.261215",
        "longitude": "-2.4020207"
      }
    ],
    "Timestamp": "2022-04-03T15:00:39"
  },
  {
    "Results": [
      {
        "county": "West Sussex",
        "title": "A27 eastbound between A24 near Worthing (west) and A24 near Worthing (east) | Eastbound | Congestion",
        "region": "South East",
        "road": "A27",
        "latitude": "50.83665",
        "longitude": "-0.38634756"
      },
      {
        "county": "Surrey",
        "title": "M25 clockwise within J8 | Clockwise | Congestion",
        "region": "South East",
        "road": "M25",
        "latitude": "51.263176",
        "longitude": "-0.18338439"
      },
      {
        "county": "Hertfordshire",
        "title": "M25 clockwise between J23 and J24 | Clockwise | Congestion",
        "region": "Eastern",
        "road": "M25",
        "latitude": "51.689514",
        "longitude": "-0.2339662"
      },
      {
        "county": "Surrey",
        "title": "M25 clockwise between J8 and J9 | Clockwise | Accident",
        "region": "South East",
        "road": "M25",
        "latitude": "51.270382",
        "longitude": "-0.2538507"
      },
      {
        "county": "Oxfordshire",
        "title": "M40 J11 northbound exit | Northbound | Congestion",
        "region": "Eastern",
        "road": "M40",
        "latitude": "52.070267",
        "longitude": "-1.3123512"
      },
      {
        "county": "Leeds District",
        "title": "M621 J5 westbound exit | Westbound | Congestion",
        "region": "North East",
        "road": "M621",
        "latitude": "53.77518",
        "longitude": "-1.5399054"
      },
      {
        "county": "Nottinghamshire",
        "title": "M1 J27 southbound exit | Southbound | Congestion",
        "region": "East Midlands",
        "road": "M1",
        "latitude": "53.065346",
        "longitude": "-1.2704872"
      },
      {
        "county": "Leeds District",
        "title": "M621 J1 westbound exit | Westbound | Congestion",
        "region": "North East",
        "road": "M621",
        "latitude": "53.775936",
        "longitude": "-1.5802257"
      },
      {
        "county": "Middlesbrough",
        "title": "A174 eastbound between A1045 and A19 | Eastbound | Congestion",
        "region": "North East",
        "road": "A174",
        "latitude": "54.528835",
        "longitude": "-1.2829715"
      },
      {
        "county": "Leeds District",
        "title": "M621 J2A westbound exit | Westbound | Congestion",
        "region": "North East",
        "road": "M621",
        "latitude": "53.78251",
        "longitude": "-1.5573606"
      },
      {
        "county": "Suffolk",
        "title": "A12 northbound between B1070 and A14 | Northbound | Congestion",
        "region": "Eastern",
        "road": "A12",
        "latitude": "51.971626",
        "longitude": "0.98299086"
      },
      {
        "county": "Kent",
        "title": "M2 eastbound between J6 and J7 | Eastbound | Congestion",
        "region": "South East",
        "road": "M2",
        "latitude": "51.298588",
        "longitude": "0.9045759"
      },
      {
        "county": "Surrey",
        "title": "link road from M3 J2 eastbound to M25 J12 anti-clockwise | Anti-Clockwise | Congestion",
        "region": "South East",
        "road": "M25",
        "latitude": "51.401688",
        "longitude": "-0.53594166"
      },
      {
        "county": "Wiltshire",
        "title": "A36 northbound between A345 and A360 | Northbound | Congestion",
        "region": "South West",
        "road": "A36",
        "latitude": "51.072952",
        "longitude": "-1.8022457"
      },
      {
        "county": "Sefton District",
        "title": "connector at M57 J7/M58/A5036/A59 | Westbound | Congestion",
        "region": "North West",
        "road": "A59",
        "latitude": "53.492683",
        "longitude": "-2.9514055"
      },
      {
        "county": "Kent",
        "title": "A20 eastbound access from M20/A259/A2034 | Eastbound | RoadOrCarriagewayOrLaneManagement",
        "region": "South East",
        "road": "A20",
        "latitude": "51.09581",
        "longitude": "1.1568221"
      },
      {
        "county": "Northamptonshire",
        "title": "A45 eastbound exit for A5076 near Northampton (east) | Eastbound | Congestion",
        "region": "East Midlands",
        "road": "A45",
        "latitude": "52.227905",
        "longitude": "-0.8710617"
      },
      {
        "county": "Northamptonshire",
        "title": "A45 eastbound exit for A43 | Eastbound | Accident",
        "region": "East Midlands",
        "road": "A45",
        "latitude": "52.24417",
        "longitude": "-0.83909094"
      },
      {
        "county": "Northamptonshire",
        "title": "A45 westbound exit for A43 | Westbound | Accident",
        "region": "East Midlands",
        "road": "A45",
        "latitude": "52.246037",
        "longitude": "-0.83310825"
      },
      {
        "county": "Kent",
        "title": "A20 eastbound between M20/A259/A2034 and A260 | Eastbound | RoadOrCarriagewayOrLaneManagement",
        "region": "South East",
        "road": "A20",
        "latitude": "51.09589",
        "longitude": "1.1598532"
      },
      {
        "county": "Buckinghamshire",
        "title": "A404 northbound between A4155 and M40 | Northbound | Congestion",
        "region": "Eastern",
        "road": "A404",
        "latitude": "51.596718",
        "longitude": "-0.76131797"
      },
      {
        "county": "County of Herefordshire",
        "title": "A49 northbound between A438 near Hereford (south) and A438 near Hereford (north) | Northbound | Congestion",
        "region": "West Midlands",
        "road": "A49",
        "latitude": "52.057262",
        "longitude": "-2.7203546"
      },
      {
        "county": "Essex",
        "title": "A120 eastbound between B1008/B1256 and B1256 near Rayne (west) | Eastbound | Overturned Vehicle",
        "region": "Eastern",
        "road": "A120",
        "latitude": "51.8608",
        "longitude": "0.3833218"
      },
      {
        "county": "East Riding of Yorkshire",
        "title": "M62 eastbound within J36 | Eastbound | Accident",
        "region": "North East",
        "road": "M62",
        "latitude": "53.705364",
        "longitude": "-0.9115146"
      },
      {
        "county": "Wiltshire",
        "title": "A36 northbound between A27 and A338 | Northbound | Congestion",
        "region": "South West",
        "road": "A36",
        "latitude": "51.06161",
        "longitude": "-1.7685578"
      },
      {
        "county": "Middlesbrough",
        "title": "A19 northbound within the A1130 junction | Northbound | Congestion",
        "region": "North East",
        "road": "A19",
        "latitude": "54.54897",
        "longitude": "-1.274665"
      },
      {
        "county": "Kent",
        "title": "M20 eastbound between J8 and J9 | Eastbound | RoadOrCarriagewayOrLaneManagement",
        "region": "South East",
        "road": "M20",
        "latitude": "51.260796",
        "longitude": "0.61932355"
      },
      {
        "county": "City of Bristol",
        "title": "M32 southbound between J2 and J3 | Southbound | Congestion",
        "region": "South West",
        "road": "M32",
        "latitude": "51.470085",
        "longitude": "-2.5655882"
      },
      {
        "county": "Bedfordshire",
        "title": "A5 northbound between A5183 and A4012 | Northbound | Congestion",
        "region": "Eastern",
        "road": "A5",
        "latitude": "51.928772",
        "longitude": "-0.58293825"
      },
      {
        "county": "Trafford District",
        "title": "M60 J9 clockwise exit | Clockwise | Congestion",
        "region": "North West",
        "road": "M60",
        "latitude": "53.456715",
        "longitude": "-2.3390415"
      },
      {
        "county": "Kent",
        "title": "M20 J11 eastbound access | Eastbound | RoadOrCarriagewayOrLaneManagement",
        "region": "South East",
        "road": "M20",
        "latitude": "51.095604",
        "longitude": "1.0521513"
      },
      {
        "county": "Hertfordshire",
        "title": "A414 westbound between M1 J8 and A4147 | Westbound | Congestion",
        "region": "Eastern",
        "road": "A414",
        "latitude": "51.75629",
        "longitude": "-0.42189884"
      },
      {
        "county": "West Sussex",
        "title": "A27 eastbound between B2145 and A259 near Chichester (east) | Eastbound | Congestion",
        "region": "South East",
        "road": "A27",
        "latitude": "50.826385",
        "longitude": "-0.75983554"
      },
      {
        "county": "West Sussex",
        "title": "A27 westbound between B2144 and A259 near Chichester (east) | Westbound | Congestion",
        "region": "South East",
        "road": "A27",
        "latitude": "50.84163",
        "longitude": "-0.75449944"
      },
      {
        "county": "Hertfordshire",
        "title": "M1 northbound within J8 | Northbound | Congestion",
        "region": "Eastern",
        "road": "M1",
        "latitude": "51.75505",
        "longitude": "-0.4156233"
      },
      {
        "county": "Buckinghamshire",
        "title": "M40 J4 northbound exit | Northbound | Congestion",
        "region": "Eastern",
        "road": "M40",
        "latitude": "51.612164",
        "longitude": "-0.7668885"
      },
      {
        "county": "Wiltshire",
        "title": "A303 eastbound between A36 and A360 | Eastbound | Congestion",
        "region": "South West",
        "road": "A303",
        "latitude": "51.163155",
        "longitude": "-1.928388"
      },
      {
        "county": "Wiltshire",
        "title": "A303 westbound between A360 and A36 | Westbound | Congestion",
        "region": "South West",
        "road": "A303",
        "latitude": "51.177223",
        "longitude": "-1.8131224"
      }
    ],
    "Timestamp": "2022-04-02T13:00:39"
  },
  {
    "Results": [
      {
        "county": "Kent",
        "title": "A249 southbound between A2 and M2 | Southbound | Congestion",
        "region": "South East",
        "road": "A249",
        "latitude": "51.338245",
        "longitude": "0.6735852"
      },
      {
        "county": "Wiltshire",
        "title": "A36 southbound between A30 (east) and A338 | Southbound | Congestion",
        "region": "South West",
        "road": "A36",
        "latitude": "51.067978",
        "longitude": "-1.7896606"
      },
      {
        "county": "Kent",
        "title": "A20 eastbound between B2011 and A256 near Dover (west) | Eastbound | Congestion",
        "region": "South East",
        "road": "A20",
        "latitude": "51.120422",
        "longitude": "1.3095171"
      },
      {
        "county": "Windsor and Maidenhead",
        "title": "M4 J8 eastbound exit | Eastbound | Congestion",
        "region": "Eastern",
        "road": "M4",
        "latitude": "51.498554",
        "longitude": "-0.72709686"
      },
      {
        "county": "Northamptonshire",
        "title": "A45 westbound within the M1 junction | Westbound | Congestion",
        "region": "East Midlands",
        "road": "A45",
        "latitude": "52.185852",
        "longitude": "-0.89542884"
      },
      {
        "county": "Kent",
        "title": "M20 J11 eastbound access | Eastbound | RoadOrCarriagewayOrLaneManagement",
        "region": "South East",
        "road": "M20",
        "latitude": "51.095604",
        "longitude": "1.0521513"
      }
    ],
    "Timestamp": "2022-04-03T10:00:38"
  },
  {
    "Results": [
      {
        "county": "Cheshire West and Chester",
        "title": "A41 eastbound between B5133 and A550 | Eastbound | Congestion",
        "region": "North West",
        "road": "A41",
        "latitude": "53.303837",
        "longitude": "-2.9590933"
      },
      {
        "county": "Kent",
        "title": "A20 eastbound between B2011 and A256 near Dover (west) | Eastbound | Congestion",
        "region": "South East",
        "road": "A20",
        "latitude": "51.103886",
        "longitude": "1.2461857"
      },
      {
        "county": "Staffordshire",
        "title": "A5 northbound between M6 Toll and A4601 | Northbound | Accident",
        "region": "West Midlands",
        "road": "A5",
        "latitude": "52.674004",
        "longitude": "-2.028929"
      },
      {
        "county": "Kent",
        "title": "M20 eastbound between J8 and J9 | Eastbound | RoadOrCarriagewayOrLaneManagement",
        "region": "South East",
        "road": "M20",
        "latitude": "51.260796",
        "longitude": "0.61932355"
      },
      {
        "county": "Kent",
        "title": "M20 J11 eastbound access | Eastbound | RoadOrCarriagewayOrLaneManagement",
        "region": "South East",
        "road": "M20",
        "latitude": "51.095604",
        "longitude": "1.0521513"
      }
    ],
    "Timestamp": "2022-04-03T00:00:38"
  },
  {
    "Results": [
      {
        "county": "Cumbria",
        "title": "A595 southbound between B5295 near Homewood and A5086 | Southbound | Accident",
        "region": "North West",
        "road": "A595",
        "latitude": "54.529743",
        "longitude": "-3.568734"
      },
      {
        "county": "Cumbria",
        "title": "A595 northbound between A5086 and B5295 near Homewood | Northbound | Accident",
        "region": "North West",
        "road": "A595",
        "latitude": "54.49033",
        "longitude": "-3.5345745"
      },
      {
        "county": "Surrey",
        "title": "A30 eastbound between M25 and A308 | Eastbound | Congestion",
        "region": "South East",
        "road": "A30",
        "latitude": "51.437218",
        "longitude": "-0.50056523"
      },
      {
        "county": "Cornwall",
        "title": "A30 eastbound between A395 and A388 near Launceston (west) | Eastbound | Accident",
        "region": "South West",
        "road": "A30",
        "latitude": "50.6294",
        "longitude": "-4.3810887"
      },
      {
        "county": "Kent",
        "title": "A20 eastbound between B2011 and A256 near Dover (west) | Eastbound | Congestion",
        "region": "South East",
        "road": "A20",
        "latitude": "51.109055",
        "longitude": "1.2747864"
      },
      {
        "county": "Essex",
        "title": "A12 northbound exit for A1114/A130 | Northbound | Congestion",
        "region": "Eastern",
        "road": "A12",
        "latitude": "51.701607",
        "longitude": "0.5144805"
      },
      {
        "county": "Kent",
        "title": "M20 eastbound between J8 and J9 | Eastbound | RoadOrCarriagewayOrLaneManagement",
        "region": "South East",
        "road": "M20",
        "latitude": "51.260796",
        "longitude": "0.61932355"
      },
      {
        "county": "Surrey",
        "title": "M3 westbound between J3 and J4 | Westbound | Broken down vehicle",
        "region": "South East",
        "road": "M3",
        "latitude": "51.331722",
        "longitude": "-0.7259821"
      },
      {
        "county": "Kent",
        "title": "M20 J11 eastbound access | Eastbound | RoadOrCarriagewayOrLaneManagement",
        "region": "South East",
        "road": "M20",
        "latitude": "51.095604",
        "longitude": "1.0521513"
      },
      {
        "county": "Kirklees District",
        "title": "M62 J26 westbound exit | Westbound | Accident",
        "region": "North East",
        "road": "M62",
        "latitude": "53.73937",
        "longitude": "-1.7227355"
      }
    ],
    "Timestamp": "2022-04-02T19:00:38"
  },
  {
    "Results": [
      {
        "county": "Leeds District",
        "title": "M621 eastbound between J2A and J3 | Eastbound | AuthorityOperation",
        "region": "North East",
        "road": "M621",
        "latitude": "53.780334",
        "longitude": "-1.5634319"
      },
      {
        "county": "Leeds District",
        "title": "M621 westbound between J2A and J2 | Westbound | AuthorityOperation",
        "region": "North East",
        "road": "M621",
        "latitude": "53.784184",
        "longitude": "-1.5521065"
      },
      {
        "county": "Surrey",
        "title": "M23 northbound between J9 and J8 | Northbound | Broken down vehicle",
        "region": "South East",
        "road": "M23",
        "latitude": "51.231136",
        "longitude": "-0.11585897"
      },
      {
        "county": "Kent",
        "title": "A20 eastbound between B2011 and A256 near Dover (west) | Eastbound | Congestion",
        "region": "South East",
        "road": "A20",
        "latitude": "51.109055",
        "longitude": "1.2747864"
      },
      {
        "county": "Milton Keynes",
        "title": "M1 J14 northbound access | Northbound | RoadOrCarriagewayOrLaneManagement",
        "region": "Eastern",
        "road": "M1",
        "latitude": "52.058887",
        "longitude": "-0.7013574"
      },
      {
        "county": "Surrey",
        "title": "M3 westbound between J2 and J3 | Westbound | Broken down vehicle",
        "region": "South East",
        "road": "M3",
        "latitude": "51.358788",
        "longitude": "-0.6682975"
      },
      {
        "county": "Kent",
        "title": "M20 eastbound between J8 and J9 | Eastbound | RoadOrCarriagewayOrLaneManagement",
        "region": "South East",
        "road": "M20",
        "latitude": "51.260796",
        "longitude": "0.61932355"
      }
    ],
    "Timestamp": "2022-04-02T02:00:38"
  },
  {
    "Results": [
      {
        "county": "Wirral District",
        "title": "M53 northbound within J1 | Northbound | RoadOrCarriagewayOrLaneManagement",
        "region": "North West",
        "road": "M53",
        "latitude": "53.412872",
        "longitude": "-3.0770664"
      },
      {
        "county": "Tameside District",
        "title": "M60 clockwise between J23 and J24 | Clockwise | Vehicle Fire",
        "region": "North West",
        "road": "M60",
        "latitude": "53.473892",
        "longitude": "-2.1286316"
      },
      {
        "county": "Doncaster District",
        "title": "A1(M) southbound between J38 and J37 | Southbound | Vehicle Recovery",
        "region": "North East",
        "road": "A1(M)",
        "latitude": "53.54843",
        "longitude": "-1.2114967"
      },
      {
        "county": "Kent",
        "title": "M20 eastbound between J8 and J9 | Eastbound | RoadOrCarriagewayOrLaneManagement",
        "region": "South East",
        "road": "M20",
        "latitude": "51.260796",
        "longitude": "0.61932355"
      },
      {
        "county": "Leeds District",
        "title": "M1 southbound within J45 | Southbound | Accident",
        "region": "North East",
        "road": "M1",
        "latitude": "53.776543",
        "longitude": "-1.4680312"
      },
      {
        "county": "Kent",
        "title": "M20 J11 eastbound access | Eastbound | RoadOrCarriagewayOrLaneManagement",
        "region": "South East",
        "road": "M20",
        "latitude": "51.095604",
        "longitude": "1.0521513"
      }
    ],
    "Timestamp": "2022-04-03T04:00:38"
  },
  {
    "Results": [
      {
        "county": "Wakefield District",
        "title": "M62 J31 eastbound exit | Eastbound | Accident",
        "region": "North East",
        "road": "M62",
        "latitude": "53.709103",
        "longitude": "-1.3968782"
      },
      {
        "county": "Northamptonshire",
        "title": "M1 J15 northbound exit | Northbound | Congestion",
        "region": "East Midlands",
        "road": "M1",
        "latitude": "52.184486",
        "longitude": "-0.8935986"
      },
      {
        "county": "Kirklees District",
        "title": "M62 eastbound between J26 and J27 | Eastbound | Accident",
        "region": "North East",
        "road": "M62",
        "latitude": "53.74584",
        "longitude": "-1.7098718"
      },
      {
        "county": "Kent",
        "title": "A20 eastbound between A260 and B2011 | Eastbound | Congestion",
        "region": "South East",
        "road": "A20",
        "latitude": "51.112717",
        "longitude": "1.2048346"
      },
      {
        "county": "Milton Keynes",
        "title": "M1 J14 northbound access | Northbound | RoadOrCarriagewayOrLaneManagement",
        "region": "Eastern",
        "road": "M1",
        "latitude": "52.058887",
        "longitude": "-0.7013574"
      },
      {
        "county": "Kent",
        "title": "M20 eastbound between J8 and J9 | Eastbound | RoadOrCarriagewayOrLaneManagement",
        "region": "South East",
        "road": "M20",
        "latitude": "51.260796",
        "longitude": "0.61932355"
      }
    ],
    "Timestamp": "2022-04-01T23:10:53"
  },
  {
    "Results": [
      {
        "county": "Kent",
        "title": "M2 J7 eastbound exit | Eastbound | Congestion",
        "region": "South East",
        "road": "M2",
        "latitude": "51.300053",
        "longitude": "0.9231624"
      },
      {
        "county": "Surrey",
        "title": "A30 eastbound exit for A308 | Eastbound | Congestion",
        "region": "South East",
        "road": "A30",
        "latitude": "51.43722",
        "longitude": "-0.5004644"
      },
      {
        "county": "Kent",
        "title": "A282 northbound within the A206 junction | Anti-Clockwise | Congestion",
        "region": "South East",
        "road": "M25",
        "latitude": "51.453796",
        "longitude": "0.24315593"
      },
      {
        "county": "Northamptonshire",
        "title": "A5 southbound between A43 and A422/A508 | Southbound | Accident",
        "region": "East Midlands",
        "road": "A5",
        "latitude": "52.079865",
        "longitude": "-0.89541346"
      },
      {
        "county": "Greater London Authority",
        "title": "M4 spur (Heathrow) southbound between M4 and J4A | Westbound | Congestion",
        "region": "Eastern",
        "road": "M4",
        "latitude": "51.494366",
        "longitude": "-0.4533545"
      },
      {
        "county": "Derbyshire",
        "title": "A38 northbound between B600 and M1 | Northbound | Broken down vehicle",
        "region": "East Midlands",
        "road": "A38",
        "latitude": "53.093563",
        "longitude": "-1.3352314"
      },
      {
        "county": "Staffordshire",
        "title": "M6 southbound between J11 and J10A | Southbound | Congestion",
        "region": "West Midlands",
        "road": "M6",
        "latitude": "52.654613",
        "longitude": "-2.0621777"
      },
      {
        "county": "Hertfordshire",
        "title": "M25 clockwise between J24 and J25 | Clockwise | Vehicle Fire",
        "region": "Eastern",
        "road": "M25",
        "latitude": "51.688457",
        "longitude": "-0.12497411"
      },
      {
        "county": "Hertfordshire",
        "title": "M25 clockwise between J24 and J25 | Clockwise | Congestion",
        "region": "Eastern",
        "road": "M25",
        "latitude": "51.691216",
        "longitude": "-0.11072437"
      },
      {
        "county": "Kent",
        "title": "M20 westbound between J9 and J8 | Westbound | Broken down vehicle",
        "region": "South East",
        "road": "M20",
        "latitude": "51.244003",
        "longitude": "0.6571031"
      },
      {
        "county": "Northamptonshire",
        "title": "A5 northbound between A422/A508 and A43 | Northbound | Accident",
        "region": "East Midlands",
        "road": "A5",
        "latitude": "52.07471",
        "longitude": "-0.8858193"
      },
      {
        "county": "Kent",
        "title": "M20 J11 eastbound access | Eastbound | RoadOrCarriagewayOrLaneManagement",
        "region": "South East",
        "road": "M20",
        "latitude": "51.095604",
        "longitude": "1.0521513"
      },
      {
        "county": "Hertfordshire",
        "title": "M1 northbound between J8 and J9 | Northbound | Vehicle Recovery",
        "region": "Eastern",
        "road": "M1",
        "latitude": "51.76783",
        "longitude": "-0.41522214"
      }
    ],
    "Timestamp": "2022-04-03T16:42:04"
  },
  {
    "Results": [
      {
        "county": "Northamptonshire",
        "title": "A5 southbound between A43 and A422/A508 | Southbound | Accident",
        "region": "East Midlands",
        "road": "A5",
        "latitude": "52.079865",
        "longitude": "-0.89541346"
      },
      {
        "county": "Derbyshire",
        "title": "A38 northbound between B600 and M1 | Northbound | Broken down vehicle",
        "region": "East Midlands",
        "road": "A38",
        "latitude": "53.093563",
        "longitude": "-1.3352314"
      },
      {
        "county": "Trafford District",
        "title": "M60 J8 clockwise exit | Clockwise | Congestion",
        "region": "North West",
        "road": "M60",
        "latitude": "53.439655",
        "longitude": "-2.3325262"
      },
      {
        "county": "Kent",
        "title": "A20 eastbound between B2011 and A256 near Dover (west) | Eastbound | Congestion",
        "region": "South East",
        "road": "A20",
        "latitude": "51.109055",
        "longitude": "1.2747864"
      },
      {
        "county": "Cambridgeshire",
        "title": "M11 northbound between J10 and J11 | Northbound | Accident",
        "region": "Eastern",
        "road": "M11",
        "latitude": "52.137325",
        "longitude": "0.11163321"
      },
      {
        "county": "Surrey",
        "title": "M25 J6 anti-clockwise exit | Anti-Clockwise | Broken down vehicle",
        "region": "South East",
        "road": "M25",
        "latitude": "51.259056",
        "longitude": "-0.067683"
      },
      {
        "county": "County of Herefordshire",
        "title": "A449 southbound between M50 and A40 | Southbound | Congestion",
        "region": "West Midlands",
        "road": "A449",
        "latitude": "51.928463",
        "longitude": "-2.5674117"
      },
      {
        "county": "Northamptonshire",
        "title": "A5 northbound between A422/A508 and A43 | Northbound | Accident",
        "region": "East Midlands",
        "road": "A5",
        "latitude": "52.07471",
        "longitude": "-0.8858193"
      },
      {
        "county": "Kent",
        "title": "M20 J11 eastbound access | Eastbound | RoadOrCarriagewayOrLaneManagement",
        "region": "South East",
        "road": "M20",
        "latitude": "51.095604",
        "longitude": "1.0521513"
      },
      {
        "county": "Hertfordshire",
        "title": "M1 northbound between J8 and J9 | Northbound | Vehicle Recovery",
        "region": "Eastern",
        "road": "M1",
        "latitude": "51.76783",
        "longitude": "-0.41522214"
      },
      {
        "county": "Buckinghamshire",
        "title": "M25 clockwise between J15 and J16 | Clockwise | Congestion",
        "region": "Eastern",
        "road": "M25",
        "latitude": "51.531277",
        "longitude": "-0.499237"
      }
    ],
    "Timestamp": "2022-04-03T16:00:38"
  },
  {
    "Results": [
      {
        "county": "Wirral District",
        "title": "M53 northbound within J1 | Northbound | RoadOrCarriagewayOrLaneManagement",
        "region": "North West",
        "road": "M53",
        "latitude": "53.412872",
        "longitude": "-3.0770664"
      },
      {
        "county": "Rochdale District",
        "title": "M62 eastbound between J18 and J19 | Eastbound | General Obstruction",
        "region": "North West",
        "road": "M62",
        "latitude": "53.561623",
        "longitude": "-2.2427416"
      },
      {
        "county": "City of Stoke-on-Trent",
        "title": "link road from A500 northbound/A5006 to A50 | Northbound | Congestion",
        "region": "West Midlands",
        "road": "A500",
        "latitude": "52.99015",
        "longitude": "-2.1841311"
      },
      {
        "county": "Kent",
        "title": "M20 eastbound between J8 and J9 | Eastbound | RoadOrCarriagewayOrLaneManagement",
        "region": "South East",
        "road": "M20",
        "latitude": "51.260796",
        "longitude": "0.61932355"
      },
      {
        "county": "Kent",
        "title": "M20 J11 eastbound access | Eastbound | RoadOrCarriagewayOrLaneManagement",
        "region": "South East",
        "road": "M20",
        "latitude": "51.095604",
        "longitude": "1.0521513"
      }
    ],
    "Timestamp": "2022-04-03T05:00:38"
  },
  {
    "Results": [
      {
        "county": "Hertfordshire",
        "title": "M25 clockwise within J20 | Clockwise | Congestion",
        "region": "Eastern",
        "road": "M25",
        "latitude": "51.699352",
        "longitude": "-0.44459647"
      },
      {
        "county": "Lancashire",
        "title": "M65 J7 westbound exit | Westbound | Accident",
        "region": "North West",
        "road": "M65",
        "latitude": "53.766335",
        "longitude": "-2.3889391"
      },
      {
        "county": "Sefton District",
        "title": "A5036 southbound between A5090 and A567 | Southbound | Congestion",
        "region": "North West",
        "road": "A5036",
        "latitude": "53.468895",
        "longitude": "-3.000587"
      },
      {
        "county": "Kirklees District",
        "title": "M62 eastbound between J26 and J27 | Eastbound | Accident",
        "region": "North East",
        "road": "M62",
        "latitude": "53.74584",
        "longitude": "-1.7098718"
      },
      {
        "county": "West Sussex",
        "title": "A23 southbound within the A273 junction | Southbound | AuthorityOperation",
        "region": "South East",
        "road": "A23",
        "latitude": "50.96441",
        "longitude": "-0.1935964"
      },
      {
        "county": "Milton Keynes",
        "title": "M1 J14 northbound access | Northbound | RoadOrCarriagewayOrLaneManagement",
        "region": "Eastern",
        "road": "M1",
        "latitude": "52.058887",
        "longitude": "-0.7013574"
      },
      {
        "county": "Leicestershire",
        "title": "A453 northbound between A6 and M1 J24/A50 | Northbound | Congestion",
        "region": "East Midlands",
        "road": "A453",
        "latitude": "52.84333",
        "longitude": "-1.2974861"
      },
      {
        "county": "Northamptonshire",
        "title": "A5 northbound between A422/A508 and A43 | Northbound | Congestion",
        "region": "East Midlands",
        "road": "A5",
        "latitude": "52.124615",
        "longitude": "-0.9771369"
      },
      {
        "county": "Coventry District",
        "title": "A45 westbound between A423 and A46 near Coventry (east) | Westbound | Congestion",
        "region": "West Midlands",
        "road": "A45",
        "latitude": "52.377033",
        "longitude": "-1.463961"
      },
      {
        "county": "Kent",
        "title": "M20 eastbound between J8 and J9 | Eastbound | RoadOrCarriagewayOrLaneManagement",
        "region": "South East",
        "road": "M20",
        "latitude": "51.260796",
        "longitude": "0.61932355"
      },
      {
        "county": "Greater London Authority",
        "title": "M25 clockwise between J25 and J26 | Clockwise | Accident",
        "region": "Eastern",
        "road": "M25",
        "latitude": "51.682507",
        "longitude": "-0.035925783"
      }
    ],
    "Timestamp": "2022-04-01T23:52:29"
  },
  {
    "Results": [
      {
        "county": "Cumbria",
        "title": "A595 southbound between B5295 near Homewood and A5086 | Southbound | Accident",
        "region": "North West",
        "road": "A595",
        "latitude": "54.529743",
        "longitude": "-3.568734"
      },
      {
        "county": "Cumbria",
        "title": "A595 northbound between A5086 and B5295 near Homewood | Northbound | Accident",
        "region": "North West",
        "road": "A595",
        "latitude": "54.49033",
        "longitude": "-3.5345745"
      },
      {
        "county": "Oldham District",
        "title": "A663 southbound within the M60 junction | Southbound | Congestion",
        "region": "North West",
        "road": "A663",
        "latitude": "53.527546",
        "longitude": "-2.1590624"
      },
      {
        "county": "Surrey",
        "title": "A30 eastbound between M25 and A308 | Eastbound | Congestion",
        "region": "South East",
        "road": "A30",
        "latitude": "51.437218",
        "longitude": "-0.50056523"
      },
      {
        "county": "Surrey",
        "title": "A30 westbound between A308 and M25 | Westbound | Congestion",
        "region": "South East",
        "road": "A30",
        "latitude": "51.43671",
        "longitude": "-0.49919838"
      },
      {
        "county": "Kent",
        "title": "A2260 southbound between A2 and B262 | Southbound | Congestion",
        "region": "South East",
        "road": "A2260",
        "latitude": "51.43056",
        "longitude": "0.32253966"
      },
      {
        "county": "Middlesbrough",
        "title": "A174 eastbound between A1045 and A19 | Eastbound | Congestion",
        "region": "North East",
        "road": "A174",
        "latitude": "54.528835",
        "longitude": "-1.2829715"
      },
      {
        "county": "Kent",
        "title": "M2 eastbound between J6 and J7 | Eastbound | Congestion",
        "region": "South East",
        "road": "M2",
        "latitude": "51.298588",
        "longitude": "0.9045759"
      },
      {
        "county": "Essex",
        "title": "link road from M11 J5 northbound to A1168 southbound | Northbound | Congestion",
        "region": "Eastern",
        "road": "M11",
        "latitude": "51.64081",
        "longitude": "0.083708666"
      },
      {
        "county": "Kent",
        "title": "A20 eastbound access from M20/A259/A2034 | Eastbound | RoadOrCarriagewayOrLaneManagement",
        "region": "South East",
        "road": "A20",
        "latitude": "51.09581",
        "longitude": "1.1568221"
      },
      {
        "county": "Kent",
        "title": "A20 eastbound between M20/A259/A2034 and A260 | Eastbound | RoadOrCarriagewayOrLaneManagement",
        "region": "South East",
        "road": "A20",
        "latitude": "51.09589",
        "longitude": "1.1598532"
      },
      {
        "county": "Buckinghamshire",
        "title": "A404 northbound within M40 junction | Northbound | Congestion",
        "region": "Eastern",
        "road": "A404",
        "latitude": "51.61057",
        "longitude": "-0.76733756"
      },
      {
        "county": "Kent",
        "title": "A20 eastbound between A256 near Dover (east) and A2 | Eastbound | Congestion",
        "region": "South East",
        "road": "A20",
        "latitude": "51.125347",
        "longitude": "1.3226712"
      },
      {
        "county": "City of Stoke-on-Trent",
        "title": "link road from A500 northbound/A5006 to A50 | Northbound | Congestion",
        "region": "West Midlands",
        "road": "A500",
        "latitude": "52.99015",
        "longitude": "-2.1841311"
      },
      {
        "county": "Kent",
        "title": "M20 eastbound between J8 and J9 | Eastbound | RoadOrCarriagewayOrLaneManagement",
        "region": "South East",
        "road": "M20",
        "latitude": "51.260796",
        "longitude": "0.61932355"
      },
      {
        "county": "Kent",
        "title": "M20 J9 westbound access | Westbound | Congestion",
        "region": "South East",
        "road": "M20",
        "latitude": "51.16214",
        "longitude": "0.8644203"
      },
      {
        "county": "Kent",
        "title": "M20 J11 eastbound access | Eastbound | RoadOrCarriagewayOrLaneManagement",
        "region": "South East",
        "road": "M20",
        "latitude": "51.095604",
        "longitude": "1.0521513"
      }
    ],
    "Timestamp": "2022-04-02T17:00:39"
  }
]
